$GPGLL,36000.0000,N,72000.0000,E,000023.998,V*1A
$GPGSA,A,1,,,,,,,,,,,,,50.0,50.0,50.0*05
$GPRMC,000023.998,V,36000.0000,N,72000.0000,E,0.000000,,101102,,*30
$GPGGA,000024.998,0000.0000,N,00000.0000,E,0,00,50.0,0.0,M,0.0,M,0.0,0000*78
$GPGLL,36000.0000,N,72000.0000,E,000024.998,V*1D
$GPGSA,A,1,,,,,,,,,,,,,50.0,50.0,50.0*05
$GPRMC,000024.998,V,36000.0000,N,72000.0000,E,0.000000,,101102,,*37
$GPGGA,000025.998,0000.0000,N,00000.0000,E,0,00,50.0,0.0,M,0.0,M,0.0,0000*79
$GPGLL,36000.0000,N,72000.0000,E,000025.998,V*1C
$GPGSA,A,1,,,,,,,,,,,,,50.0,50.0,50.0*05
$GPRMC,000025.998,V,36000.0000,N,72000.0000,E,0.000000,,101102,,*36
$GPGGA,000026.998,0000.0000,N,00000.0000,E,0,00,50.0,0.0,M,0.0,M,0.0,0000*7A
$GPGLL,36000.0000,N,72000.0000,E,000026.998,V*1F
$GPGSA,A,1,,,,,,,,,,,,,50.0,50.0,50.0*05
$GPGSV,1,1,1,7,0,0,0*4F
$GPRMC,000026.998,V,36000.0000,N,72000.0000,E,0.000000,,101102,,*35
$GPGGA,000027.998,0000.0000,N,00000.0000,E,0,00,50.0,0.0,M,0.0,M,0.0,0000*7B
$GPGLL,36000.0000,N,72000.0000,E,000027.998,V*1E
$GPGSA,A,1,,,,,,,,,,,,,50.0,50.0,50.0*05
$GPRMC,000027.998,V,36000.0000,N,72000.0000,E,0.000000,,101102,,*34
$GPGGA,000028.998,0000.0000,N,00000.0000,E,0,00,50.0,0.0,M,0.0,M,0.0,0000*74
$GPGLL,36000.0000,N,72000.0000,E,000028.998,V*11
$GPGSA,A,1,,,,,,,,,,,,,50.0,50.0,50.0*05
$GPRMC,000028.998,V,36000.0000,N,72000.0000,E,0.000000,,101102,,*3B
$GPGGA,000029.997,0000.0000,N,00000.0000,E,0,00,50.0,0.0,M,0.0,M,0.0,0000*7A
$GPGLL,36000.0000,N,72000.0000,E,000029.997,V*1F
$GPGSA,A,1,,,,,,,,,,,,,50.0,50.0,50.0*05
$GPRMC,000029.997,V,36000.0000,N,72000.0000,E,0.000000,,101102,,*35
$GPGGA,000030.997,0000.0000,N,00000.0000,E,0,00,50.0,0.0,M,0.0,M,0.0,0000*72
$GPGLL,36000.0000,N,72000.0000,E,000030.997,V*17
$GPGSA,A,1,,,,,,,,,,,,,50.0,50.0,50.0*05
$GPRMC,000030.997,V,36000.0000,N,72000.0000,E,0.000000,,101102,,*3D
$GPGGA,000031.997,0000.0000,N,00000.0000,E,0,00,50.0,0.0,M,0.0,M,0.0,0000*73
$GPGLL,36000.0000,N,72000.0000,E,000031.997,V*16
$GPGSA,A,1,,,,,,,,,,,,,50.0,50.0,50.0*05
$GPGSV,1,1,1,14,0,0,0*7D
$GPRMC,000031.997,V,36000.0000,N,72000.0000,E,0.000000,,101102,,*3C
$GPGGA,000032.997,0000.0000,N,00000.0000,E,0,00,50.0,0.0,M,0.0,M,0.0,0000*70
$GPGLL,36000.0000,N,72000.0000,E,000032.997,V*15
$GPGSA,A,1,,,,,,,,,,,,,50.0,50.0,50.0*05
$GPRMC,000032.997,V,36000.0000,N,72000.0000,E,0.000000,,101102,,*3F
000.0000,E,0,00,50.0,0.0,M,0.0,M,0.0,0000*7B
$GPGLL,36000.0000,N,72000.0000,E,235955.000,V*1E
$GPGSA,A,1,,,,,,,,,,,,,50.0,50.0,50.0*05
$GPRMC,235955.000,V,36000.0000,N,72000.0000,E,0.000000,,091102,,*3C
$GPGGA,235956.000,0000.0000,N,00000.0000,E,0,00,50.0,0.0,M,0.0,M,0.0,0000*78
$GPGLL,36000.0000,N,72000.0000,E,235956.000,V*1D
$GPGSA,A,1,,,,,,,,,,,,,50.0,50.0,50.0*05
$GPRMC,235956.000,V,36000.0000,N,72000.0000,E,0.000000,,091102,,*3F
$GPGGA,235956.999,0000.0000,N,00000.0000,E,0,00,50.0,0.0,M,0.0,M,0.0,0000*71
$GPGLL,36000.0000,N,72000.0000,E,235956.999,V*14
$GPGSA,A,1,,,,,,,,,,,,,50.0,50.0,50.0*05
$GPGSV,1,1,1,6,0,0,0*4E
$GPRMC,235956.999,V,36000.0000,N,72000.0000,E,0.000000,,091102,,*36
$GPGGA,235957.999,0000.0000,N,00000.0000,E,0,00,50.0,0.0,M,0.0,M,0.0,0000*70
$GPGLL,36000.0000,N,72000.0000,E,235957.999,V*15
$GPGSA,A,1,,,,,,,,,,,,,50.0,50.0,50.0*05
$GPRMC,235957.999,V,36000.0000,N,72000.0000,E,0.000000,,091102,,*37
$GPGGA,235958.999,0000.0000,N,00000.0000,E,0,00,50.0,0.0,M,0.0,M,0.0,0000*7F
$GPGLL,36000.0000,N,72000.0000,E,235958.999,V*1A
$GPGSA,A,1,,,,,,,,,,,,,50.0,50.0,50.0*05
$GPRMC,235958.999,V,36000.0000,N,72000.0000,E,0.000000,,091102,,*38
$GPGGA,235959.999,0000.0000,N,00000.0000,E,0,00,50.0,0.0,M,0.0,M,0.0,0000*7E
$GPGLL,36000.0000,N,72000.0000,E,235959.999,V*1B
$GPGSA,A,1,,,,,,,,,,,,,50.0,50.0,50.0*05
$GPRMC,235959.999,V,36000.0000,N,72000.0000,E,0.000000,,091102,,*39
$GPGGA,000000.999,0000.0000,N,00000.0000,E,0,00,50.0,0.0,M,0.0,M,0.0,0000*7F
$GPGLL,36000.0000,N,72000.0000,E,000000.999,V*1A
$GPGSA,A,1,,,,,,,,,,,,,50.0,50.0,50.0*05
$GPRMC,000000.999,V,36000.0000,N,72000.0000,E,0.000000,,101102,,*30
$GPGGA,000001.999,0000.0000,N,00000.0000,E,0,00,50.0,0.0,M,0.0,M,0.0,0000*7E
$GPGLL,36000.0000,N,72000.0000,E,000001.999,V*1B
$GPGSA,A,1,,,,,,,,,,,,,50.0,50.0,50.0*05
$GPGSV,1,1,1,26,0,0,0*7C
$GPRMC,000001.999,V,36000.0000,N,72000.0000,E,0.000000,,101102,,*31
$GPGGA,000002.999,0000.0000,N,00000.0000,E,0,00,50.0,0.0,M,0.0,M,0.0,0000*7D
$GPGLL,36000.0000,N,72000.0000,E,000002.999,V*18
$GPGSA,A,1,,,,,,,,,,,,,50.0,50.0,50.0*05
$GPRMC,000002.999,V,36000.0000,N,72000.0000,E,0.000000,,101102,,*32
$GPGGA,000003.999,0000.0000,N,00000.0000,E,0,00,50.0,0.0,M,0.0,M,0.0,0000*7C
$GPGLL,36000.0000,N,72000.0000,E,000003.999,V*19
$GPGSA,A,1,,,,,,,,,,,,,50.0,50.0,50.0*05
$GPRMC,000003.999,V,36000.0000,N,72000.0000,E,0.000000,,101102,,*33
$GPGGA,000004.999,0000.0000,N,00000.0000,E,0,00,50.0,0.0,M,0.0,M,0.0,0000*7B
$GPGLL,36000.0000,N,72000.0000,E,000004.999,V*1E
$GPGSA,A,1,,,,,,,,,,,,,50.0,50.0,50.0*05
$GPRMC,000004.999,V,36000.0000,N,72000.0000,E,0.000000,,101102,,*34
$GPGGA,000005.999,0000.0000,N,00000.0000,E,0,00,50.0,0.0,M,0.0,M,0.0,0000*7A
$GPGLL,36000.0000,N,72000.0000,E,000005.999,V*1F
$GPGSA,A,1,,,,,,,,,,,,,50.0,50.0,50.0*05
$GPRMC,000005.999,V,36000.0000,N,72000.0000,E,0.000000,,101102,,*35
$GPGGA,000006.999,0000.0000,N,00000.0000,E,0,00,50.0,0.0,M,0.0,M,0.0,0000*79
$GPGLL,36000.0000,N,72000.0000,E,000006.999,V*1C
$GPGSA,A,1,,,,,,,,,,,,,50.0,50.0,50.0*05
$GPGSV,1,1,1,5,0,0,0*4D
$GPRMC,000006.999,V,36000.0000,N,72000.0000,E,0.000000,,101102,,*36
$GPGGA,000007.999,0000.0000,N,00000.0000,E,0,00,50.0,0.0,M,0.0,M,0.0,0000*78
$GPGLL,36000.0000,N,72000.0000,E,000007.999,V*1D
$GPGSA,A,1,,,,,,,,,,,,,50.0,50.0,50.0*05
$GPRMC,000007.999,V,36000.0000,N,72000.0000,E,0.000000,,101102,,*37
$GPGGA,000008.999,0000.0000,N,00000.0000,E,0,00,50.0,0.0,M,0.0,M,0.0,0000*77
$GPGLL,36000.0000,N,72000.0000,E,000008.999,V*12
$GPGSA,A,1,,,,,,,,,,,,,50.0,50.0,50.0*05
$GPRMC,000008.999,V,36000.0000,N,72000.0000,E,0.000000,,101102,,*38
$GPGGA,000009.999,0000.0000,N,00000.0000,E,0,00,50.0,0.0,M,0.0,M,0.0,0000*76
$GPGLL,36000.0000,N,72000.0000,E,000009.999,V*13
$GPGSA,A,1,,,,,,,,,,,,,50.0,50.0,50.0*05
$GPRMC,000009.999,V,36000.0000,N,72000.0000,E,0.000000,,101102,,*39
$GPGGA,000010.999,0000.0000,N,00000.0000,E,0,00,50.0,0.0,M,0.0,M,0.0,0000*7E
$GPGLL,36000.0000,N,72000.0000,E,000010.999,V*1B
$GPGSA,A,1,,,,,,,,,,,,,50.0,50.0,50.0*05
$GPRMC,000010.999,V,36000.0000,N,72000.0000,E,0.000000,,101102,,*31
$GPGGA,000011.999,0000.0000,N,00000.0000,E,0,00,50.0,0.0,M,0.0,M,0.0,0000*7F
$GPGLL,36000.0000,N,72000.0000,E,000011.999,V*1A
$GPGSA,A,1,,,,,,,,,,,,,50.0,50.0,50.0*05
$GPGSV,1,1,1,24,0,0,0*7E
$GPRMC,000011.999,V,36000.0000,N,72000.0000,E,0.000000,,101102,,*30
$GPGGA,000012.998,0000.0000,N,00000.0000,E,0,00,50.0,0.0,M,0.0,M,0.0,0000*7D
$GPGLL,36000.0000,N,72000.0000,E,000012.998,V*18
$GPGSA,A,1,,,,,,,,,,,,,50.0,50.0,50.0*05
$GPRMC,000012.998,V,36000.0000,N,72000.0000,E,0.000000,,101102,,*32
$GPGGA,000013.998,0000.0000,N,00000.0000,E,0,00,50.0,0.0,M,0.0,M,0.0,0000*7C
$GPGLL,36000.0000,N,72000.0000,E,000013.998,V*19
$GPGSA,A,1,,,,,,,,,,,,,50.0,50.0,50.0*05
$GPRMC,000013.998,V,36000.0000,N,72000.0000,E,0.000000,,101102,,*33
$GPGGA,000014.998,0000.0000,N,00000.0000,E,0,00,50.0,0.0,M,0.0,M,0.0,0000*7B
$GPGLL,36000.0000,N,72000.0000,E,000014.998,V*1E
$GPGSA,A,1,,,,,,,,,,,,,50.0,50.0,50.0*05
$GPRMC,000014.998,V,36000.0000,N,72000.0000,E,0.000000,,101102,,*34
$GPGGA,000015.998,0000.0000,N,00000.0000,E,0,00,50.0,0.0,M,0.0,M,0.0,0000*7A
$GPGLL,36000.0000,N,72000.0000,E,000015.998,V*1F
$GPGSA,A,1,,,,,,,,,,,,,50.0,50.0,50.0*05
$GPRMC,000015.998,V,36000.0000,N,72000.0000,E,0.000000,,101102,,*35
$GPGGA,000016.998,0000.0000,N,00000.0000,E,0,00,50.0,0.0,M,0.0,M,0.0,0000*79
$GPGLL,36000.0000,N,72000.0000,E,000016.998,V*1C
$GPGSA,A,1,,,,,,,,,,,,,50.0,50.0,50.0*05
$GPGSV,1,1,1,21,0,0,0*7B
$GPRMC,000016.998,V,36000.0000,N,72000.0000,E,0.000000,,101102,,*36
$GPGGA,000017.998,0000.0000,N,00000.0000,E,0,00,50.0,0.0,M,0.0,M,0.0,0000*78
$GPGLL,36000.0000,N,72000.0000,E,000017.998,V*1D
$GPGSA,A,1,,,,,,,,,,,,,50.0,50.0,50.0*05
$GPRMC,000017.998,V,36000.0000,N,72000.0000,E,0.000000,,101102,,*37
$GPGGA,000018.998,0000.0000,N,00000.0000,E,0,00,50.0,0.0,M,0.0,M,0.0,0000*77
$GPGLL,36000.0000,N,72000.0000,E,000018.998,V*12
$GPGSA,A,1,,,,,,,,,,,,,50.0,50.0,50.0*05
$GPRMC,000018.998,V,36000.0000,N,72000.0000,E,0.000000,,101102,,*38
$GPGGA,000019.998,0000.0000,N,00000.0000,E,0,00,50.0,0.0,M,0.0,M,0.0,0000*76
$GPGLL,36000.0000,N,72000.0000,E,000019.998,V*13
$GPGSA,A,1,,,,,,,,,,,,,50.0,50.0,50.0*05
$GPRMC,000019.998,V,36000.0000,N,72000.0000,E,0.000000,,101102,,*39
$GPGGA,000020.998,0000.0000,N,00000.0000,E,0,00,50.0,0.0,M,0.0,M,0.0,0000*7C
$GPGLL,36000.0000,N,72000.0000,E,000020.998,V*19
$GPGSA,A,1,,,,,,,,,,,,,50.0,50.0,50.0*05
$GPRMC,000020.998,V,36000.0000,N,72000.0000,E,0.000000,,101102,,*33
$GPGGA,000021.998,0000.0000,N,00000.0000,E,0,00,50.0,0.0,M,0.0,M,0.0,0000*7D
$GPGLL,36000.0000,N,72000.0000,E,000021.998,V*18
$GPGSA,A,1,,,,,,,,,,,,,50.0,50.0,50.0*05
$GPGSV,1,1,1,9,0,0,0*41
$GPRMC,000021.998,V,36000.0000,N,72000.0000,E,0.000000,,101102,,*32
$GPGGA,000022.998,0000.0000,N,00000.0000,E,0,00,50.0,0.0,M,0.0,M,0.0,0000*7E
$GPGLL,36000.0000,N,72000.0000,E,000022.998,V*1B
$GPGSA,A,1,,,,,,,,,,,,,50.0,50.0,50.0*05
$GPRMC,000022.998,V,36000.0000,N,72000.0000,E,0.000000,,101102,,*31
$GPGGA,000023.998,0000.0000,N,00000.0000,E,0,00,50.0,0.0,M,0.0,M,0.0,0000*7F
$GPGLL,36000.0000,N,72000.0000,E,000023.998,V*1A
$GPGSA,A,1,,,,,,,,,,,,,50.0,50.0,50.0*05
$GPRMC,000023.998,V,36000.0000,N,72000.0000,E,0.000000,,101102,,*30
$GPGGA,000024.998,0000.0000,N,00000.0000,E,0,00,50.0,0.0,M,0.0,M,0.0,0000*78
$GPGLL,36000.0000,N,72000.0000,E,000024.998,V*1D
$GPGSA,A,1,,,,,,,,,,,,,50.0,50.0,50.0*05
$GPRMC,000024.998,V,36000.0000,N,72000.0000,E,0.000000,,101102,,*37
$GPGGA,000025.998,0000.0000,N,00000.0000,E,0,00,50.0,0.0,M,0.0,M,0.0,0000*79
$GPGLL,36000.0000,N,72000.0000,E,000025.998,V*1C
$GPGSA,A,1,,,,,,,,,,,,,50.0,50.0,50.0*05
$GPRMC,000025.998,V,36000.0000,N,72000.0000,E,0.000000,,101102,,*36
$GPGGA,000026.998,0000.0000,N,00000.0000,E,0,00,50.0,0.0,M,0.0,M,0.0,0000*7A
$GPGLL,36000.0000,N,72000.0000,E,000026.998,V*1F
$GPGSA,A,1,,,,,,,,,,,,,50.0,50.0,50.0*05
$GPGSV,1,1,1,7,0,0,0*4F
$GPRMC,000026.998,V,36000.0000,N,72000.0000,E,0.000000,,101102,,*35
$GPGGA,000027.998,0000.0000,N,00000.0000,E,0,00,50.0,0.0,M,0.0,M,0.0,0000*7B
$GPGLL,36000.0000,N,72000.0000,E,000027.998,V*1E
$GPGSA,A,1,,,,,,,,,,,,,50.0,50.0,50.0*05
$GPRMC,000027.998,V,36000.0000,N,72000.0000,E,0.000000,,101102,,*34
$GPGGA,000028.998,0000.0000,N,00000.0000,E,0,00,50.0,0.0,M,0.0,M,0.0,0000*74
$GPGLL,36000.0000,N,72000.0000,E,000028.998,V*11
$GPGSA,A,1,,,,,,,,,,,,,50.0,50.0,50.0*05
$GPRMC,000028.998,V,36000.0000,N,72000.0000,E,0.000000,,101102,,*3B
$GPGGA,000029.997,0000.0000,N,00000.0000,E,0,00,50.0,0.0,M,0.0,M,0.0,0000*7A
$GPGLL,36000.0000,N,72000.0000,E,000029.997,V*1F
$GPGSA,A,1,,,,,,,,,,,,,50.0,50.0,50.0*05
$GPRMC,000029.997,V,36000.0000,N,72000.0000,E,0.000000,,101102,,*35
$GPGGA,000030.997,0000.0000,N,00000.0000,E,0,00,50.0,0.0,M,0.0,M,0.0,0000*72
$GPGLL,36000.0000,N,72000.0000,E,000030.997,V*17
$GPGSA,A,1,,,,,,,,,,,,,50.0,50.0,50.0*05
$GPRMC,000030.997,V,36000.0000,N,72000.0000,E,0.000000,,101102,,*3D
$GPGGA,000031.997,0000.0000,N,00000.0000,E,0,00,50.0,0.0,M,0.0,M,0.0,0000*73
$GPGLL,36000.0000,N,72000.0000,E,000031.997,V*16
$GPGSA,A,1,,,,,,,,,,,,,50.0,50.0,50.0*05
$GPGSV,3,1,12,3,0,0,39,4,0,0,0,22,0,0,0,29,0,0,0*4E
$GPGSV,3,2,12,14,0,0,0,23,0,0,0,13,0,0,0,16,0,0,0*7A
$GPGSV,3,3,12,15,0,0,0,30,0,0,0,17,0,0,0,122,0,0,0*4A
$GPRMC,000031.997,V,36000.0000,N,72000.0000,E,0.000000,,101102,,*3C
$GPGGA,000032.997,0000.0000,N,00000.0000,E,0,00,50.0,0.0,M,0.0,M,0.0,0000*70
$GPGLL,36000.0000,N,72000.0000,E,000032.997,V*15
$GPGSA,A,1,,,,,,,,,,,,,50.0,50.0,50.0*05
$GPRMC,000032.997,V,36000.0000,N,72000.0000,E,0.000000,,101102,,*3F
$GPGGA,000033.997,0000.0000,N,00000.0000,E,0,00,50.0,0.0,M,0.0,M,0.0,0000*71
$GPGLL,36000.0000,N,72000.0000,E,000033.997,V*14
$GPGSA,A,1,,,,,,,,,,,,,50.0,50.0,50.0*05
$GPRMC,000033.997,V,36000.0000,N,72000.0000,E,0.000000,,101102,,*3E
$GPGGA,000034.997,0000.0000,N,00000.0000,E,0,00,50.0,0.0,M,0.0,M,0.0,0000*76
$GPGLL,36000.0000,N,72000.0000,E,000034.997,V*13
$GPGSA,A,1,,,,,,,,,,,,,50.0,50.0,50.0*05
$GPRMC,000034.997,V,36000.0000,N,72000.0000,E,0.000000,,101102,,*39
$GPGGA,000035.997,0000.0000,N,00000.0000,E,0,00,50.0,0.0,M,0.0,M,0.0,0000*77
$GPGLL,36000.0000,N,72000.0000,E,000035.997,V*12
$GPGSA,A,1,,,,,,,,,,,,,50.0,50.0,50.0*05
$GPRMC,000035.997,V,36000.0000,N,72000.0000,E,0.000000,,101102,,*38
$GPGGA,000036.997,0000.0000,N,00000.0000,E,0,00,50.0,0.0,M,0.0,M,0.0,0000*74
$GPGLL,36000.0000,N,72000.0000,E,000036.997,V*11
$GPGSA,A,1,,,,,,,,,,,,,50.0,50.0,50.0*05
$GPGSV,3,1,12,3,0,0,42,4,0,0,0,22,0,0,0,29,0,0,0*42
$GPGSV,3,2,12,14,0,0,0,23,0,0,0,13,0,0,0,16,0,0,0*7A
$GPGSV,3,3,12,15,0,0,0,30,0,0,0,17,0,0,0,122,0,0,0*4A
$GPRMC,000036.997,V,36000.0000,N,72000.0000,E,0.000000,,101102,,*3B
$GPGGA,000037.997,0000.0000,N,00000.0000,E,0,00,50.0,0.0,M,0.0,M,0.0,0000*75
$GPGLL,36000.0000,N,72000.0000,E,000037.997,V*10
$GPGSA,A,1,,,,,,,,,,,,,50.0,50.0,50.0*05
$GPRMC,000037.997,V,36000.0000,N,72000.0000,E,0.000000,,101102,,*3A
$GPGGA,000038.997,0000.0000,N,00000.0000,E,0,00,50.0,0.0,M,0.0,M,0.0,0000*7A
$GPGLL,36000.0000,N,72000.0000,E,000038.997,V*1F
$GPGSA,A,1,,,,,,,,,,,,,50.0,50.0,50.0*05
$GPRMC,000038.997,V,36000.0000,N,72000.0000,E,0.000000,,101102,,*35
$GPGGA,000039.997,0000.0000,N,00000.0000,E,0,00,50.0,0.0,M,0.0,M,0.0,0000*7B
$GPGLL,36000.0000,N,72000.0000,E,000039.997,V*1E
$GPGSA,A,1,,,,,,,,,,,,,50.0,50.0,50.0*05
$GPRMC,000039.997,V,36000.0000,N,72000.0000,E,0.000000,,101102,,*34
$GPGGA,000040.997,0000.0000,N,00000.0000,E,0,00,50.0,0.0,M,0.0,M,0.0,0000*75
$GPGLL,36000.0000,N,72000.0000,E,000040.997,V*10
$GPGSA,A,1,,,,,,,,,,,,,50.0,50.0,50.0*05
$GPRMC,000040.997,V,36000.0000,N,72000.0000,E,0.000000,,101102,,*3A
$GPGGA,000041.997,0000.0000,N,00000.0000,E,0,00,50.0,0.0,M,0.0,M,0.0,0000*74
$GPGLL,36000.0000,N,72000.0000,E,000041.997,V*11
$GPGSA,A,1,,,,,,,,,,,,,50.0,50.0,50.0*05
$GPGSV,3,1,12,3,0,0,42,4,0,0,0,22,0,0,0,29,0,0,0*42
$GPGSV,3,2,12,14,0,0,0,23,0,0,0,13,0,0,0,16,0,0,0*7A
$GPGSV,3,3,12,15,0,0,0,30,0,0,0,17,0,0,0,122,0,0,0*4A
$GPRMC,000041.997,V,36000.0000,N,72000.0000,E,0.000000,,101102,,*3B
$GPGGA,000042.997,0000.0000,N,00000.0000,E,0,00,50.0,0.0,M,0.0,M,0.0,0000*77
$GPGLL,36000.0000,N,72000.0000,E,000042.997,V*12
$GPGSA,A,1,,,,,,,,,,,,,50.0,50.0,50.0*05
$GPRMC,000042.997,V,36000.0000,N,72000.0000,E,0.000000,,101102,,*38
$GPGGA,183854.474,0000.0000,N,00000.0000,E,0,00,50.0,0.0,M,0.0,M,0.0,0000*72
$GPGLL,36000.0000,N,72000.0000,E,183854.474,V*17
$GPGSA,A,1,,,,,,,,,,,,,50.0,50.0,50.0*05
$GPRMC,183854.474,V,36000.0000,N,72000.0000,E,0.000000,,151102,,*38
$GPGGA,183855.474,0000.0000,N,00000.0000,E,0,00,50.0,0.0,M,0.0,M,0.0,0000*73
$GPGLL,36000.0000,N,72000.0000,E,183855.474,V*16
$GPGSA,A,1,,,,,,,,,,,,,50.0,50.0,50.0*05
$GPRMC,183855.474,V,36000.0000,N,72000.0000,E,0.000000,,151102,,*39
$GPGGA,183856.474,0000.0000,N,00000.0000,E,0,00,50.0,0.0,M,0.0,M,0.0,0000*70
$GPGLL,36000.0000,N,72000.0000,E,183856.474,V*15
$GPGSA,A,1,,,,,,,,,,,,,50.0,50.0,50.0*05
$GPRMC,183856.474,V,36000.0000,N,72000.0000,E,0.000000,,151102,,*3A
$GPGGA,183857.474,0000.0000,N,00000.0000,E,0,00,50.0,0.0,M,0.0,M,0.0,0000*71
$GPGLL,36000.0000,N,72000.0000,E,183857.474,V*14
$GPGSA,A,1,,,,,,,,,,,,,50.0,50.0,50.0*05
$GPGSV,3,1,12,3,0,0,41,4,0,0,0,22,0,0,0,29,0,0,0*41
$GPGSV,3,2,12,14,0,0,0,23,0,0,0,13,0,0,0,16,0,0,0*7A
$GPGSV,3,3,12,15,0,0,0,30,0,0,0,17,0,0,0,122,0,0,0*4A
$GPRMC,183857.474,V,36000.0000,N,72000.0000,E,0.000000,,151102,,*3B
$GPGGA,183858.474,0000.0000,N,00000.0000,E,0,00,50.0,0.0,M,0.0,M,0.0,0000*7E
$GPGLL,36000.0000,N,72000.0000,E,183858.474,V*1B
$GPGSA,A,1,,,,,,,,,,,,,50.0,50.0,50.0*05
$GPRMC,183858.474,V,36000.0000,N,72000.0000,E,0.000000,,151102,,*34
$GPGGA,183859.474,0000.0000,N,00000.0000,E,0,00,50.0,0.0,M,0.0,M,0.0,0000*7F
$GPGLL,36000.0000,N,72000.0000,E,183859.474,V*1A
$GPGSA,A,1,,,,,,,,,,,,,50.0,50.0,50.0*05
$GPRMC,183859.474,V,36000.0000,N,72000.0000,E,0.000000,,151102,,*35
$GPGGA,183900.474,0000.0000,N,00000.0000,E,0,00,50.0,0.0,M,0.0,M,0.0,0000*72
$GPGLL,36000.0000,N,72000.0000,E,183900.474,V*17
$GPGSA,A,1,,,,,,,,,,,,,50.0,50.0,50.0*05
$GPRMC,183900.474,V,36000.0000,N,72000.0000,E,0.000000,,151102,,*38
$GPGGA,183901.474,0000.0000,N,00000.0000,E,0,00,50.0,0.0,M,0.0,M,0.0,0000*73
$GPGLL,36000.0000,N,72000.0000,E,183901.474,V*16
$GPGSA,A,1,,,,,,,,,,,,,50.0,50.0,50.0*05
$GPRMC,183901.474,V,36000.0000,N,72000.0000,E,0.000000,,151102,,*39
$GPGGA,183902.474,0000.0000,N,00000.0000,E,0,00,50.0,0.0,M,0.0,M,0.0,0000*70
$GPGLL,36000.0000,N,72000.0000,E,183902.474,V*15
$GPGSA,A,1,,,,,,,,,,,,,50.0,50.0,50.0*05
$GPGSV,3,1,12,3,0,0,43,4,0,0,0,22,0,0,0,29,0,0,0*43
$GPGSV,3,2,12,14,0,0,0,23,0,0,0,13,0,0,0,16,0,0,0*7A
$GPGSV,3,3,12,15,0,0,0,30,0,0,0,17,0,0,0,122,0,0,0*4A
$GPRMC,183902.474,V,36000.0000,N,72000.0000,E,0.000000,,151102,,*3A
$GPGGA,183903.474,0000.0000,N,00000.0000,E,0,00,50.0,0.0,M,0.0,M,0.0,0000*71
$GPGLL,36000.0000,N,72000.0000,E,183903.474,V*14
$GPGSA,A,1,,,,,,,,,,,,,50.0,50.0,50.0*05
$GPRMC,183903.474,V,36000.0000,N,72000.0000,E,0.000000,,151102,,*3B
$GPGGA,183904.473,0000.0000,N,00000.0000,E,0,00,50.0,0.0,M,0.0,M,0.0,0000*71
$GPGLL,36000.0000,N,72000.0000,E,183904.473,V*14
$GPGSA,A,1,,,,,,,,,,,,,50.0,50.0,50.0*05
$GPRMC,183904.473,V,36000.0000,N,72000.0000,E,0.000000,,151102,,*3B
$GPGGA,183905.473,0000.0000,N,00000.0000,E,0,00,50.0,0.0,M,0.0,M,0.0,0000*70
$GPGLL,36000.0000,N,72000.0000,E,183905.473,V*15
$GPGSA,A,1,,,,,,,,,,,,,50.0,50.0,50.0*05
$GPRMC,183905.473,V,36000.0000,N,72000.0000,E,0.000000,,291004,,*32
$GPGGA,183906.473,0000.0000,N,00000.0000,E,0,00,50.0,0.0,M,0.0,M,0.0,0000*73
$GPGLL,36000.0000,N,72000.0000,E,183906.473,V*16
$GPGSA,A,1,,,,,,,,,,,,,50.0,50.0,50.0*05
$GPRMC,183906.473,V,36000.0000,N,72000.0000,E,0.000000,,291004,,*31
$GPGGA,183907.473,0000.0000,N,00000.0000,E,0,00,50.0,0.0,M,0.0,M,0.0,0000*72
$GPGLL,36000.0000,N,72000.0000,E,183907.473,V*17
$GPGSA,A,1,,,,,,,,,,,,,50.0,50.0,50.0*05
$GPGSV,3,1,11,3,0,0,44,22,0,0,0,29,0,0,0,27,0,0,0*76
$GPGSV,3,2,11,23,0,0,0,13,0,0,0,16,0,0,0,15,0,0,0*78
$GPGSV,3,3,11,21,0,0,0,8,0,0,0,122,0,0,0*43
$GPRMC,183907.473,V,36000.0000,N,72000.0000,E,0.000000,,291004,,*30
$GPGGA,183908.473,0000.0000,N,00000.0000,E,0,00,50.0,0.0,M,0.0,M,0.0,0000*7D
$GPGLL,36000.0000,N,72000.0000,E,183908.473,V*18
$GPGSA,A,1,,,,,,,,,,,,,50.0,50.0,50.0*05
$GPRMC,183908.473,V,36000.0000,N,72000.0000,E,0.000000,,291004,,*3F
$GPGGA,183909.473,0000.0000,N,00000.0000,E,0,00,50.0,0.0,M,0.0,M,0.0,0000*7C
$GPGLL,36000.0000,N,72000.0000,E,183909.473,V*19
$GPGSA,A,1,,,,,,,,,,,,,50.0,50.0,50.0*05
$GPRMC,183909.473,V,36000.0000,N,72000.0000,E,0.000000,,291004,,*3E
$GPGGA,183910.473,0000.0000,N,00000.0000,E,0,00,50.0,0.0,M,0.0,M,0.0,0000*74
$GPGLL,36000.0000,N,72000.0000,E,183910.473,V*11
$GPGSA,A,1,,,,,,,,,,,,,50.0,50.0,50.0*05
$GPRMC,183910.473,V,36000.0000,N,72000.0000,E,0.000000,,291004,,*36
$GPGGA,183911.473,0000.0000,N,00000.0000,E,0,00,50.0,0.0,M,0.0,M,0.0,0000*75
$GPGLL,36000.0000,N,72000.0000,E,183911.473,V*10
$GPGSA,A,1,,,,,,,,,,,,,50.0,50.0,50.0*05
$GPRMC,183911.473,V,36000.0000,N,72000.0000,E,0.000000,,291004,,*37
$GPGGA,183912.473,0000.0000,N,00000.0000,E,0,00,50.0,0.0,M,0.0,M,0.0,0000*76
$GPGLL,36000.0000,N,72000.0000,E,183912.473,V*13
$GPGSA,A,1,,,,,,,,,,,,,50.0,50.0,50.0*05
$GPGSV,3,1,12,3,0,0,45,25,0,0,0,22,0,0,0,29,0,0,0*76
$GPGSV,3,2,12,27,0,0,0,23,0,0,0,13,0,0,0,16,0,0,0*7A
$GPGSV,3,3,12,15,0,0,0,21,0,0,0,8,0,0,0,122,0,0,0*74
$GPRMC,183912.473,V,36000.0000,N,72000.0000,E,0.000000,,291004,,*34
$GPGGA,183913.473,0000.0000,N,00000.0000,E,0,00,50.0,0.0,M,0.0,M,0.0,0000*77
$GPGLL,36000.0000,N,72000.0000,E,183913.473,V*12
$GPGSA,A,1,,,,,,,,,,,,,50.0,50.0,50.0*05
$GPRMC,183913.473,V,36000.0000,N,72000.0000,E,0.000000,,291004,,*35
$GPGGA,183914.473,0000.0000,N,00000.0000,E,0,00,50.0,0.0,M,0.0,M,0.0,0000*70
$GPGLL,36000.0000,N,72000.0000,E,183914.473,V*15
$GPGSA,A,1,,,,,,,,,,,,,50.0,50.0,50.0*05
$GPRMC,183914.473,V,36000.0000,N,72000.0000,E,0.000000,,291004,,*32
$GPGGA,183915.473,0000.0000,N,00000.0000,E,0,00,50.0,0.0,M,0.0,M,0.0,0000*71
$GPGLL,36000.0000,N,72000.0000,E,183915.473,V*14
$GPGSA,A,1,,,,,,,,,,,,,50.0,50.0,50.0*05
$GPRMC,183915.473,V,36000.0000,N,72000.0000,E,0.000000,,291004,,*33
$GPGGA,183916.473,0000.0000,N,00000.0000,E,0,00,50.0,0.0,M,0.0,M,0.0,0000*72
$GPGLL,36000.0000,N,72000.0000,E,183916.473,V*17
$GPGSA,A,1,,,,,,,,,,,,,50.0,50.0,50.0*05
$GPRMC,183916.473,V,36000.0000,N,72000.0000,E,0.000000,,291004,,*30
$GPGGA,183917.473,0000.0000,N,00000.0000,E,0,00,50.0,0.0,M,0.0,M,0.0,0000*73
$GPGLL,36000.0000,N,72000.0000,E,183917.473,V*16
$GPGSA,A,1,,,,,,,,,,,,,50.0,50.0,50.0*05
$GPGSV,3,1,12,3,0,0,45,25,0,0,0,22,0,0,0,29,0,0,0*76
$GPGSV,3,2,12,27,0,0,0,23,0,0,0,13,0,0,0,16,0,0,0*7A
$GPGSV,3,3,12,15,0,0,0,21,0,0,0,8,0,0,0,122,0,0,0*74
$GPRMC,183917.473,V,36000.0000,N,72000.0000,E,0.000000,,291004,,*31
$GPGGA,183918.473,0000.0000,N,00000.0000,E,0,00,50.0,0.0,M,0.0,M,0.0,0000*7C
$GPGLL,36000.0000,N,72000.0000,E,183918.473,V*19
$GPGSA,A,1,,,,,,,,,,,,,50.0,50.0,50.0*05
$GPRMC,183918.473,V,36000.0000,N,72000.0000,E,0.000000,,291004,,*3E
$GPGGA,183919.473,0000.0000,N,00000.0000,E,0,00,50.0,0.0,M,0.0,M,0.0,0000*7D
$GPGLL,36000.0000,N,72000.0000,E,183919.473,V*18
$GPGSA,A,1,,,,,,,,,,,,,50.0,50.0,50.0*05
$GPRMC,183919.473,V,36000.0000,N,72000.0000,E,0.000000,,291004,,*3F
$GPGGA,183920.473,0000.0000,N,00000.0000,E,0,00,50.0,0.0,M,0.0,M,0.0,0000*77
$GPGLL,36000.0000,N,72000.0000,E,183920.473,V*12
$GPGSA,A,1,,,,,,,,,,,,,50.0,50.0,50.0*05
$GPRMC,183920.473,V,36000.0000,N,72000.0000,E,0.000000,,291004,,*35
$GPGGA,183921.472,0000.0000,N,00000.0000,E,0,00,50.0,0.0,M,0.0,M,0.0,0000*77
$GPGLL,36000.0000,N,72000.0000,E,183921.472,V*12
$GPGSA,A,1,,,,,,,,,,,,,50.0,50.0,50.0*05
$GPRMC,183921.472,V,36000.0000,N,72000.0000,E,0.000000,,291004,,*35
$GPGGA,183922.472,0000.0000,N,00000.0000,E,0,00,50.0,0.0,M,0.0,M,0.0,0000*74
$GPGLL,36000.0000,N,72000.0000,E,183922.472,V*11
$GPGSA,A,1,,,,,,,,,,,,,50.0,50.0,50.0*05
$GPGSV,3,1,12,3,0,0,44,25,0,0,0,22,0,0,0,29,0,0,0*77
$GPGSV,3,2,12,27,0,0,0,23,0,0,0,13,0,0,0,16,0,0,0*7A
$GPGSV,3,3,12,15,0,0,0,21,0,0,0,8,0,0,0,122,0,0,0*74
$GPRMC,183922.472,V,36000.0000,N,72000.0000,E,0.000000,,291004,,*36
$GPGGA,183923.472,0000.0000,N,00000.0000,E,0,00,50.0,0.0,M,0.0,M,0.0,0000*75
$GPGLL,36000.0000,N,72000.0000,E,183923.472,V*10
$GPGSA,A,1,,,,,,,,,,,,,50.0,50.0,50.0*05
$GPRMC,183923.472,V,36000.0000,N,72000.0000,E,0.000000,,291004,,*37
$GPGGA,183924.472,0000.0000,N,00000.0000,E,0,00,50.0,0.0,M,0.0,M,0.0,0000*72
$GPGLL,36000.0000,N,72000.0000,E,183924.472,V*17
$GPGSA,A,1,,,,,,,,,,,,,50.0,50.0,50.0*05
$GPRMC,183924.472,V,36000.0000,N,72000.0000,E,0.000000,,291004,,*30
$GPGGA,183925.472,0000.0000,N,00000.0000,E,0,00,50.0,0.0,M,0.0,M,0.0,0000*73
$GPGLL,36000.0000,N,72000.0000,E,183925.472,V*16
$GPGSA,A,1,,,,,,,,,,,,,50.0,50.0,50.0*05
$GPRMC,183925.472,V,36000.0000,N,72000.0000,E,0.000000,,291004,,*31
$GPGGA,183926.472,0000.0000,N,00000.0000,E,0,00,50.0,0.0,M,0.0,M,0.0,0000*70
$GPGLL,36000.0000,N,72000.0000,E,183926.472,V*15
$GPGSA,A,1,,,,,,,,,,,,,50.0,50.0,50.0*05
$GPRMC,183926.472,V,36000.0000,N,72000.0000,E,0.000000,,291004,,*32
$GPGGA,183927.472,0000.0000,N,00000.0000,E,0,00,50.0,0.0,M,0.0,M,0.0,0000*71
$GPGLL,36000.0000,N,72000.0000,E,183927.472,V*14
$GPGSA,A,1,,,,,,,,,,,,,50.0,50.0,50.0*05
$GPGSV,3,1,12,3,0,0,43,25,0,0,0,22,0,0,0,29,0,0,0*70
$GPGSV,3,2,12,27,0,0,0,23,0,0,0,13,0,0,0,16,0,0,0*7A
$GPGSV,3,3,12,15,0,0,0,21,0,0,0,8,0,0,0,122,0,0,0*74
$GPRMC,183927.472,V,36000.0000,N,72000.0000,E,0.000000,,291004,,*33
$GPGGA,183928.472,0000.0000,N,00000.0000,E,0,00,50.0,0.0,M,0.0,M,0.0,0000*7E
$GPGLL,36000.0000,N,72000.0000,E,183928.472,V*1B
$GPGSA,A,1,,,,,,,,,,,,,50.0,50.0,50.0*05
$GPRMC,183928.472,V,36000.0000,N,72000.0000,E,0.000000,,291004,,*3C
$GPGGA,183929.472,0000.0000,N,00000.0000,E,0,00,50.0,0.0,M,0.0,M,0.0,0000*7F
$GPGLL,36000.0000,N,72000.0000,E,183929.472,V*1A
$GPGSA,A,1,,,,,,,,,,,,,50.0,50.0,50.0*05
$GPRMC,183929.472,V,36000.0000,N,72000.0000,E,0.000000,,291004,,*3D
$GPGGA,183930.472,0000.0000,N,00000.0000,E,0,00,50.0,0.0,M,0.0,M,0.0,0000*77
$GPGLL,36000.0000,N,72000.0000,E,183930.472,V*12
$GPGSA,A,1,,,,,,,,,,,,,50.0,50.0,50.0*05
$GPRMC,183930.472,V,36000.0000,N,72000.0000,E,0.000000,,291004,,*35
$GPGGA,183931.472,0000.0000,N,00000.0000,E,0,00,50.0,0.0,M,0.0,M,0.0,0000*76
$GPGLL,36000.0000,N,72000.0000,E,183931.472,V*13
$GPGSA,A,1,,,,,,,,,,,,,50.0,50.0,50.0*05
$GPRMC,183931.472,V,36000.0000,N,72000.0000,E,0.000000,,291004,,*34
$GPGGA,183932.472,0000.0000,N,00000.0000,E,0,00,50.0,0.0,M,0.0,M,0.0,0000*75
$GPGLL,36000.0000,N,72000.0000,E,183932.472,V*10
$GPGSA,A,1,,,,,,,,,,,,,50.0,50.0,50.0*05
$GPGSV,3,1,12,3,0,0,43,25,0,0,0,22,0,0,0,29,0,0,0*70
$GPGSV,3,2,12,27,0,0,0,23,0,0,0,13,0,0,0,16,0,0,0*7A
$GPGSV,3,3,12,15,0,0,0,21,0,0,0,8,0,0,0,122,0,0,0*74
$GPRMC,183932.472,V,36000.0000,N,72000.0000,E,0.000000,,291004,,*37
$GPGGA,183933.472,0000.0000,N,00000.0000,E,0,00,50.0,0.0,M,0.0,M,0.0,0000*74
$GPGLL,36000.0000,N,72000.0000,E,183933.472,V*11
$GPGSA,A,1,,,,,,,,,,,,,50.0,50.0,50.0*05
$GPRMC,183933.472,V,36000.0000,N,72000.0000,E,0.000000,,291004,,*36
$GPGGA,183934.472,0000.0000,N,00000.0000,E,0,00,50.0,0.0,M,0.0,M,0.0,0000*73
$GPGLL,36000.0000,N,72000.0000,E,183934.472,V*16
$GPGSA,A,1,,,,,,,,,,,,,50.0,50.0,50.0*05
$GPRMC,183934.472,V,36000.0000,N,72000.0000,E,0.000000,,291004,,*31
$GPGGA,183935.472,0000.0000,N,00000.0000,E,0,00,50.0,0.0,M,0.0,M,0.0,0000*72
$GPGLL,36000.0000,N,72000.0000,E,183935.472,V*17
$GPGSA,A,1,,,,,,,,,,,,,50.0,50.0,50.0*05
$GPRMC,183935.472,V,36000.0000,N,72000.0000,E,0.000000,,291004,,*30
$GPGGA,183936.472,0000.0000,N,00000.0000,E,0,00,50.0,0.0,M,0.0,M,0.0,0000*71
$GPGLL,36000.0000,N,72000.0000,E,183936.472,V*14
$GPGSA,A,1,,,,,,,,,,,,,50.0,50.0,50.0*05
$GPRMC,183936.472,V,36000.0000,N,72000.0000,E,0.000000,,291004,,*33
$GPGGA,183937.471,0000.0000,N,00000.0000,E,0,00,50.0,0.0,M,0.0,M,0.0,0000*73
$GPGLL,36000.0000,N,72000.0000,E,183937.471,V*16
$GPGSA,A,1,,,,,,,,,,,,,50.0,50.0,50.0*05
$GPGSV,3,1,12,3,0,0,40,25,0,0,0,22,0,0,0,29,0,0,0*73
$GPGSV,3,2,12,27,0,0,0,23,0,0,0,13,0,0,0,16,0,0,0*7A
$GPGSV,3,3,12,15,0,0,0,21,0,0,0,8,0,0,0,122,0,0,0*74
$GPRMC,183937.471,V,36000.0000,N,72000.0000,E,0.000000,,291004,,*31
$GPGGA,183938.471,0000.0000,N,00000.0000,E,0,00,50.0,0.0,M,0.0,M,0.0,0000*7C
$GPGLL,36000.0000,N,72000.0000,E,183938.471,V*19
$GPGSA,A,1,,,,,,,,,,,,,50.0,50.0,50.0*05
$GPRMC,183938.471,V,36000.0000,N,72000.0000,E,0.000000,,291004,,*3E
$GPGGA,183939.471,0000.0000,N,00000.0000,E,0,00,50.0,0.0,M,0.0,M,0.0,0000*7D
$GPGLL,36000.0000,N,72000.0000,E,183939.471,V*18
$GPGSA,A,1,,,,,,,,,,,,,50.0,50.0,50.0*05
$GPRMC,183939.471,V,36000.0000,N,72000.0000,E,0.000000,,291004,,*3F
$GPGGA,183940.471,0000.0000,N,00000.0000,E,0,00,50.0,0.0,M,0.0,M,0.0,0000*73
$GPGLL,36000.0000,N,72000.0000,E,183940.471,V*16
$GPGSA,A,1,,,,,,,,,,,,,50.0,50.0,50.0*05
$GPRMC,183940.471,V,36000.0000,N,72000.0000,E,0.000000,,291004,,*31
$GPGGA,183941.471,0000.0000,N,00000.0000,E,0,00,50.0,0.0,M,0.0,M,0.0,0000*72
$GPGLL,36000.0000,N,72000.0000,E,183941.471,V*17
$GPGSA,A,1,,,,,,,,,,,,,50.0,50.0,50.0*05
$GPRMC,183941.471,V,36000.0000,N,72000.0000,E,0.000000,,291004,,*30
$GPGGA,183942.471,0000.0000,N,00000.0000,E,0,00,50.0,0.0,M,0.0,M,0.0,0000*71
$GPGLL,36000.0000,N,72000.0000,E,183942.471,V*14
$GPGSA,A,1,,,,,,,,,,,,,50.0,50.0,50.0*05
$GPGSV,3,1,12,3,0,0,41,25,0,0,0,18,0,0,0,11,0,0,0*70
$GPGSV,3,2,12,27,0,0,0,10,0,0,0,1,0,0,0,6,0,0,0*78
$GPGSV,3,3,12,15,0,0,0,21,0,0,0,8,0,0,0,122,0,0,0*74
$GPRMC,183942.471,V,36000.0000,N,72000.0000,E,0.000000,,291004,,*33
$GPGGA,183943.471,0000.0000,N,00000.0000,E,0,00,50.0,0.0,M,0.0,M,0.0,0000*70
$GPGLL,36000.0000,N,72000.0000,E,183943.471,V*15
$GPGSA,A,1,,,,,,,,,,,,,50.0,50.0,50.0*05
$GPRMC,183943.471,V,36000.0000,N,72000.0000,E,0.000000,,291004,,*32
$GPGGA,183944.471,0000.0000,N,00000.0000,E,0,00,50.0,0.0,M,0.0,M,0.0,0000*77
$GPGLL,36000.0000,N,72000.0000,E,183944.471,V*12
$GPGSA,A,1,,,,,,,,,,,,,50.0,50.0,50.0*05
$GPRMC,183944.471,V,36000.0000,N,72000.0000,E,0.000000,,291004,,*35
$GPGGA,183945.471,0000.0000,N,00000.0000,E,0,00,50.0,0.0,M,0.0,M,0.0,0000*76
$GPGLL,36000.0000,N,72000.0000,E,183945.471,V*13
$GPGSA,A,1,,,,,,,,,,,,,50.0,50.0,50.0*05
$GPRMC,183945.471,V,36000.0000,N,72000.0000,E,0.000000,,291004,,*34
$GPGGA,183946.471,0000.0000,N,00000.0000,E,0,00,50.0,0.0,M,0.0,M,0.0,0000*75
$GPGLL,36000.0000,N,72000.0000,E,183946.471,V*10
$GPGSA,A,1,,,,,,,,,,,,,50.0,50.0,50.0*05
$GPRMC,183946.471,V,36000.0000,N,72000.0000,E,0.000000,,291004,,*37
$GPGGA,183947.471,0000.0000,N,00000.0000,E,0,00,50.0,0.0,M,0.0,M,0.0,0000*74
$GPGLL,36000.0000,N,72000.0000,E,183947.471,V*11
$GPGSA,A,1,,,,,,,,,,,,,50.0,50.0,50.0*05
$GPGSV,3,1,12,3,0,0,40,25,0,0,0,18,0,0,0,11,0,0,0*71
$GPGSV,3,2,12,27,0,0,0,10,0,0,0,1,0,0,0,6,0,0,0*78
$GPGSV,3,3,12,15,0,0,0,21,0,0,0,8,0,0,0,122,0,0,0*74
$GPRMC,183947.471,V,36000.0000,N,72000.0000,E,0.000000,,291004,,*36
$GPGGA,183948.471,0000.0000,N,00000.0000,E,0,00,50.0,0.0,M,0.0,M,0.0,0000*7B
$GPGLL,36000.0000,N,72000.0000,E,183948.471,V*1E
$GPGSA,A,1,,,,,,,,,,,,,50.0,50.0,50.0*05
$GPRMC,183948.471,V,36000.0000,N,72000.0000,E,0.000000,,291004,,*39
$GPGGA,183949.471,0000.0000,N,00000.0000,E,0,00,50.0,0.0,M,0.0,M,0.0,0000*7A
$GPGLL,36000.0000,N,72000.0000,E,183949.471,V*1F
$GPGSA,A,1,,,,,,,,,,,,,50.0,50.0,50.0*05
$GPRMC,183949.471,V,36000.0000,N,72000.0000,E,0.000000,,291004,,*38
$GPGGA,183950.471,0000.0000,N,00000.0000,E,0,00,50.0,0.0,M,0.0,M,0.0,0000*72
$GPGLL,36000.0000,N,72000.0000,E,183950.471,V*17
$GPGSA,A,1,,,,,,,,,,,,,50.0,50.0,50.0*05
$GPRMC,183950.471,V,36000.0000,N,72000.0000,E,0.000000,,291004,,*30
$GPGGA,183951.471,0000.0000,N,00000.0000,E,0,00,50.0,0.0,M,0.0,M,0.0,0000*73
$GPGLL,36000.0000,N,72000.0000,E,183951.471,V*16
$GPGSA,A,1,,,,,,,,,,,,,50.0,50.0,50.0*05
$GPRMC,183951.471,V,36000.0000,N,72000.0000,E,0.000000,,291004,,*31
$GPGGA,183952.471,0000.0000,N,00000.0000,E,0,00,50.0,0.0,M,0.0,M,0.0,0000*70
$GPGLL,36000.0000,N,72000.0000,E,183952.471,V*15
$GPGSA,A,1,,,,,,,,,,,,,50.0,50.0,50.0*05
$GPGSV,3,1,12,3,0,0,41,25,0,0,0,18,0,0,0,11,0,0,0*70
$GPGSV,3,2,12,27,0,0,0,10,0,0,0,1,0,0,0,6,0,0,0*78
$GPGSV,3,3,12,15,0,0,0,21,0,0,0,8,0,0,0,122,0,0,0*74
$GPRMC,183952.471,V,36000.0000,N,72000.0000,E,0.000000,,291004,,*32
$GPGGA,183953.471,0000.0000,N,00000.0000,E,0,00,50.0,0.0,M,0.0,M,0.0,0000*71
$GPGLL,36000.0000,N,72000.0000,E,183953.471,V*14
$GPGSA,A,1,,,,,,,,,,,,,50.0,50.0,50.0*05
$GPRMC,183953.471,V,36000.0000,N,72000.0000,E,0.000000,,291004,,*33
$GPGGA,183954.470,0000.0000,N,00000.0000,E,0,00,50.0,0.0,M,0.0,M,0.0,0000*77
$GPGLL,36000.0000,N,72000.0000,E,183954.470,V*12
$GPGSA,A,1,,,,,,,,,,,,,50.0,50.0,50.0*05
$GPRMC,183954.470,V,36000.0000,N,72000.0000,E,0.000000,,291004,,*35
$GPGGA,183955.470,0000.0000,N,00000.0000,E,0,00,50.0,0.0,M,0.0,M,0.0,0000*76
$GPGLL,36000.0000,N,72000.0000,E,183955.470,V*13
$GPGSA,A,1,,,,,,,,,,,,,50.0,50.0,50.0*05
$GPRMC,183955.470,V,36000.0000,N,72000.0000,E,0.000000,,291004,,*34
$GPGGA,183956.470,0000.0000,N,00000.0000,E,0,00,50.0,0.0,M,0.0,M,0.0,0000*75
$GPGLL,36000.0000,N,72000.0000,E,183956.470,V*10
$GPGSA,A,1,,,,,,,,,,,,,50.0,50.0,50.0*05
$GPRMC,183956.470,V,36000.0000,N,72000.0000,E,0.000000,,291004,,*37
$GPGGA,183957.470,0000.0000,N,00000.0000,E,0,00,50.0,0.0,M,0.0,M,0.0,0000*74
$GPGLL,36000.0000,N,72000.0000,E,183957.470,V*11
$GPGSA,A,1,,,,,,,,,,,,,50.0,50.0,50.0*05
$GPGSV,3,1,12,3,0,0,41,25,0,0,0,18,0,0,0,11,0,0,0*70
$GPGSV,3,2,12,27,0,0,0,10,0,0,0,1,0,0,0,6,0,0,0*78
$GPGSV,3,3,12,15,0,0,0,21,0,0,0,8,0,0,0,122,0,0,0*74
$GPRMC,183957.470,V,36000.0000,N,72000.0000,E,0.000000,,291004,,*36
$GPGGA,183958.470,0000.0000,N,00000.0000,E,0,00,50.0,0.0,M,0.0,M,0.0,0000*7B
$GPGLL,36000.0000,N,72000.0000,E,183958.470,V*1E
$GPGSA,A,1,,,,,,,,,,,,,50.0,50.0,50.0*05
$GPRMC,183958.470,V,36000.0000,N,72000.0000,E,0.000000,,291004,,*39
$GPGGA,183959.470,0000.0000,N,00000.0000,E,0,00,50.0,0.0,M,0.0,M,0.0,0000*7A
$GPGLL,36000.0000,N,72000.0000,E,183959.470,V*1F
$GPGSA,A,1,,,,,,,,,,,,,50.0,50.0,50.0*05
$GPRMC,183959.470,V,36000.0000,N,72000.0000,E,0.000000,,291004,,*38
$GPGGA,184000.470,0000.0000,N,00000.0000,E,0,00,50.0,0.0,M,0.0,M,0.0,0000*78
$GPGLL,36000.0000,N,72000.0000,E,184000.470,V*1D
$GPGSA,A,1,,,,,,,,,,,,,50.0,50.0,50.0*05
$GPRMC,184000.470,V,36000.0000,N,72000.0000,E,0.000000,,291004,,*3A
$GPGGA,184001.470,0000.0000,N,00000.0000,E,0,00,50.0,0.0,M,0.0,M,0.0,0000*79
$GPGLL,36000.0000,N,72000.0000,E,184001.470,V*1C
$GPGSA,A,1,,,,,,,,,,,,,50.0,50.0,50.0*05
$GPRMC,184001.470,V,36000.0000,N,72000.0000,E,0.000000,,291004,,*3B
$GPGGA,184002.470,0000.0000,N,00000.0000,E,0,00,50.0,0.0,M,0.0,M,0.0,0000*7A
$GPGLL,36000.0000,N,72000.0000,E,184002.470,V*1F
$GPGSA,A,1,,,,,,,,,,,,,50.0,50.0,50.0*05
$GPGSV,3,1,12,3,0,0,42,25,0,0,0,18,0,0,0,11,0,0,0*73
$GPGSV,3,2,12,27,0,0,0,10,0,0,0,1,0,0,0,6,0,0,0*78
$GPGSV,3,3,12,15,0,0,0,21,0,0,0,8,0,0,0,122,0,0,0*74
$GPRMC,184002.470,V,36000.0000,N,72000.0000,E,0.000000,,291004,,*38
$GPGGA,184003.470,0000.0000,N,00000.0000,E,0,00,50.0,0.0,M,0.0,M,0.0,0000*7B
$GPGLL,36000.0000,N,72000.0000,E,184003.470,V*1E
$GPGSA,A,1,,,,,,,,,,,,,50.0,50.0,50.0*05
$GPRMC,184003.470,V,36000.0000,N,72000.0000,E,0.000000,,291004,,*39
$GPGGA,184004.470,0000.0000,N,00000.0000,E,0,00,50.0,0.0,M,0.0,M,0.0,0000*7C
$GPGLL,36000.0000,N,72000.0000,E,184004.470,V*19
$GPGSA,A,1,,,,,,,,,,,,,50.0,50.0,50.0*05
$GPRMC,184004.470,V,36000.0000,N,72000.0000,E,0.000000,,291004,,*3E
$GPGGA,184005.470,0000.0000,N,00000.0000,E,0,00,50.0,0.0,M,0.0,M,0.0,0000*7D
$GPGLL,36000.0000,N,72000.0000,E,184005.470,V*18
$GPGSA,A,1,,,,,,,,,,,,,50.0,50.0,50.0*05
$GPRMC,184005.470,V,36000.0000,N,72000.0000,E,0.000000,,291004,,*3F
$GPGGA,184006.470,0000.0000,N,00000.0000,E,0,00,50.0,0.0,M,0.0,M,0.0,0000*7E
$GPGLL,36000.0000,N,72000.0000,E,184006.470,V*1B
$GPGSA,A,1,,,,,,,,,,,,,50.0,50.0,50.0*05
$GPRMC,184006.470,V,36000.0000,N,72000.0000,E,0.000000,,291004,,*3C
$GPGGA,184007.470,0000.0000,N,00000.0000,E,0,00,50.0,0.0,M,0.0,M,0.0,0000*7F
$GPGLL,36000.0000,N,72000.0000,E,184007.470,V*1A
$GPGSA,A,1,,,,,,,,,,,,,50.0,50.0,50.0*05
$GPGSV,3,1,12,3,0,0,41,25,0,0,0,18,0,0,0,11,0,0,0*70
$GPGSV,3,2,12,16,0,0,0,10,0,0,0,1,0,0,0,6,0,0,0*7A
$GPGSV,3,3,12,15,0,0,0,13,0,0,0,23,0,0,0,122,0,0,0*4C
$GPRMC,184007.470,V,36000.0000,N,72000.0000,E,0.000000,,291004,,*3D
$GPGGA,184008.470,0000.0000,N,00000.0000,E,0,00,50.0,0.0,M,0.0,M,0.0,0000*70
$GPGLL,36000.0000,N,72000.0000,E,184008.470,V*15
$GPGSA,A,1,,,,,,,,,,,,,50.0,50.0,50.0*05
$GPRMC,184008.470,V,36000.0000,N,72000.0000,E,0.000000,,291004,,*32
$GPGGA,184009.470,0000.0000,N,00000.0000,E,0,00,50.0,0.0,M,0.0,M,0.0,0000*71
$GPGLL,36000.0000,N,72000.0000,E,184009.470,V*14
$GPGSA,A,1,,,,,,,,,,,,,50.0,50.0,50.0*05
$GPRMC,184009.470,V,36000.0000,N,72000.0000,E,0.000000,,291004,,*33
$GPGGA,184010.469,0000.0000,N,00000.0000,E,0,00,50.0,0.0,M,0.0,M,0.0,0000*71
$GPGLL,36000.0000,N,72000.0000,E,184010.469,V*14
$GPGSA,A,1,,,,,,,,,,,,,50.0,50.0,50.0*05
$GPRMC,184010.469,V,36000.0000,N,72000.0000,E,0.000000,,291004,,*33
$GPGGA,184011.469,0000.0000,N,00000.0000,E,0,00,50.0,0.0,M,0.0,M,0.0,0000*70
$GPGLL,36000.0000,N,72000.0000,E,184011.469,V*15
$GPGSA,A,1,,,,,,,,,,,,,50.0,50.0,50.0*05
$GPRMC,184011.469,V,36000.0000,N,72000.0000,E,0.000000,,291004,,*32
$GPGGA,184012.469,0000.0000,N,00000.0000,E,0,00,50.0,0.0,M,0.0,M,0.0,0000*73
$GPGLL,36000.0000,N,72000.0000,E,184012.469,V*16
$GPGSA,A,1,,,,,,,,,,,,,50.0,50.0,50.0*05
$GPGSV,3,1,12,3,0,0,43,22,0,0,0,18,0,0,0,11,0,0,0*75
$GPGSV,3,2,12,16,0,0,0,10,0,0,0,1,0,0,0,6,0,0,0*7A
$GPGSV,3,3,12,15,0,0,0,13,0,0,0,23,0,0,0,122,0,0,0*4C
$GPRMC,184012.469,V,36000.0000,N,72000.0000,E,0.000000,,291004,,*31
$GPGGA,184013.469,0000.0000,N,00000.0000,E,0,00,50.0,0.0,M,0.0,M,0.0,0000*72
$GPGLL,36000.0000,N,72000.0000,E,184013.469,V*17
$GPGSA,A,1,,,,,,,,,,,,,50.0,50.0,50.0*05
$GPRMC,184013.469,V,36000.0000,N,72000.0000,E,0.000000,,291004,,*30
$GPGGA,184014.469,0000.0000,N,00000.0000,E,0,00,50.0,0.0,M,0.0,M,0.0,0000*75
$GPGLL,36000.0000,N,72000.0000,E,184014.469,V*10
$GPGSA,A,1,,,,,,,,,,,,,50.0,50.0,50.0*05
$GPRMC,184014.469,V,36000.0000,N,72000.0000,E,0.000000,,291004,,*37
$GPGGA,184015.469,0000.0000,N,00000.0000,E,0,00,50.0,0.0,M,0.0,M,0.0,0000*74
$GPGLL,36000.0000,N,72000.0000,E,184015.469,V*11
$GPGSA,A,1,,,,,,,,,,,,,50.0,50.0,50.0*05
$GPRMC,184015.469,V,36000.0000,N,72000.0000,E,0.000000,,291004,,*36
$GPGGA,184016.469,0000.0000,N,00000.0000,E,0,00,50.0,0.0,M,0.0,M,0.0,0000*77
$GPGLL,36000.0000,N,72000.0000,E,184016.469,V*12
$GPGSA,A,1,,,,,,,,,,,,,50.0,50.0,50.0*05
$GPRMC,184016.469,V,36000.0000,N,72000.0000,E,0.000000,,291004,,*35
$GPGGA,184017.469,0000.0000,N,00000.0000,E,0,00,50.0,0.0,M,0.0,M,0.0,0000*76
$GPGLL,36000.0000,N,72000.0000,E,184017.469,V*13
$GPGSA,A,1,,,,,,,,,,,,,50.0,50.0,50.0*05
$GPGSV,3,1,12,3,0,0,41,22,0,0,0,18,0,0,0,11,0,0,0*77
$GPGSV,3,2,12,16,0,0,0,10,0,0,0,1,0,0,0,6,0,0,0*7A
$GPGSV,3,3,12,15,0,0,0,13,0,0,0,23,0,0,0,122,0,0,0*4C
$GPRMC,184017.469,V,36000.0000,N,72000.0000,E,0.000000,,291004,,*34
$GPGGA,184018.469,0000.0000,N,00000.0000,E,0,00,50.0,0.0,M,0.0,M,0.0,0000*79
$GPGLL,36000.0000,N,72000.0000,E,184018.469,V*1C
$GPGSA,A,1,,,,,,,,,,,,,50.0,50.0,50.0*05
$GPRMC,184018.469,V,36000.0000,N,72000.0000,E,0.000000,,291004,,*3B
$GPGGA,184019.469,0000.0000,N,00000.0000,E,0,00,50.0,0.0,M,0.0,M,0.0,0000*78
$GPGLL,36000.0000,N,72000.0000,E,184019.469,V*1D
$GPGSA,A,1,,,,,,,,,,,,,50.0,50.0,50.0*05
$GPRMC,184019.469,V,36000.0000,N,72000.0000,E,0.000000,,291004,,*3A
$GPGGA,184020.469,0000.0000,N,00000.0000,E,0,00,50.0,0.0,M,0.0,M,0.0,0000*72
$GPGLL,36000.0000,N,72000.0000,E,184020.469,V*17
$GPGSA,A,1,,,,,,,,,,,,,50.0,50.0,50.0*05
$GPRMC,184020.469,V,36000.0000,N,72000.0000,E,0.000000,,291004,,*30
$GPGGA,184021.469,0000.0000,N,00000.0000,E,0,00,50.0,0.0,M,0.0,M,0.0,0000*73
$GPGLL,36000.0000,N,72000.0000,E,184021.469,V*16
$GPGSA,A,1,,,,,,,,,,,,,50.0,50.0,50.0*05
$GPRMC,184021.469,V,36000.0000,N,72000.0000,E,0.000000,,291004,,*31
$GPGGA,184022.469,0000.0000,N,00000.0000,E,0,00,50.0,0.0,M,0.0,M,0.0,0000*70
$GPGLL,36000.0000,N,72000.0000,E,184022.469,V*15
$GPGSA,A,1,,,,,,,,,,,,,50.0,50.0,50.0*05
$GPGSV,3,1,12,3,0,0,42,22,0,0,0,18,0,0,0,11,0,0,0*74
$GPGSV,3,2,12,16,0,0,0,10,0,0,0,1,0,0,0,6,0,0,0*7A
$GPGSV,3,3,12,15,0,0,0,13,0,0,0,23,0,0,0,122,0,0,0*4C
$GPRMC,184022.469,V,36000.0000,N,72000.0000,E,0.000000,,291004,,*32
$GPGGA,184023.469,0000.0000,N,00000.0000,E,0,00,50.0,0.0,M,0.0,M,0.0,0000*71
$GPGLL,36000.0000,N,72000.0000,E,184023.469,V*14
$GPGSA,A,1,,,,,,,,,,,,,50.0,50.0,50.0*05
$GPRMC,184023.469,V,36000.0000,N,72000.0000,E,0.000000,,291004,,*33
$GPGGA,184024.469,0000.0000,N,00000.0000,E,0,00,50.0,0.0,M,0.0,M,0.0,0000*76
$GPGLL,36000.0000,N,72000.0000,E,184024.469,V*13
$GPGSA,A,1,,,,,,,,,,,,,50.0,50.0,50.0*05
$GPRMC,184024.469,V,36000.0000,N,72000.0000,E,0.000000,,291004,,*34
$GPGGA,184025.469,0000.0000,N,00000.0000,E,0,00,50.0,0.0,M,0.0,M,0.0,0000*77
$GPGLL,36000.0000,N,72000.0000,E,184025.469,V*12
$GPGSA,A,1,,,,,,,,,,,,,50.0,50.0,50.0*05
$GPRMC,184025.469,V,36000.0000,N,72000.0000,E,0.000000,,291004,,*35
$GPGGA,184026.468,0000.0000,N,00000.0000,E,0,00,50.0,0.0,M,0.0,M,0.0,0000*75
$GPGLL,36000.0000,N,72000.0000,E,184026.468,V*10
$GPGSA,A,1,,,,,,,,,,,,,50.0,50.0,50.0*05
$GPRMC,184026.468,V,36000.0000,N,72000.0000,E,0.000000,,291004,,*37
$GPGGA,184027.468,0000.0000,N,00000.0000,E,0,00,50.0,0.0,M,0.0,M,0.0,0000*74
$GPGLL,36000.0000,N,72000.0000,E,184027.468,V*11
$GPGSA,A,1,,,,,,,,,,,,,50.0,50.0,50.0*05
$GPGSV,3,1,12,3,0,0,42,22,0,0,0,18,0,0,0,11,0,0,0*74
$GPGSV,3,2,12,16,0,0,0,10,0,0,0,1,0,0,0,6,0,0,0*7A
$GPGSV,3,3,12,15,0,0,0,13,0,0,0,23,0,0,0,122,0,0,0*4C
$GPRMC,184027.468,V,36000.0000,N,72000.0000,E,0.000000,,291004,,*36
$GPGGA,184028.468,0000.0000,N,00000.0000,E,0,00,50.0,0.0,M,0.0,M,0.0,0000*7B
$GPGLL,36000.0000,N,72000.0000,E,184028.468,V*1E
$GPGSA,A,1,,,,,,,,,,,,,50.0,50.0,50.0*05
$GPRMC,184028.468,V,36000.0000,N,72000.0000,E,0.000000,,291004,,*39
$GPGGA,184029.468,0000.0000,N,00000.0000,E,0,00,50.0,0.0,M,0.0,M,0.0,0000*7A
$GPGLL,36000.0000,N,72000.0000,E,184029.468,V*1F
$GPGSA,A,1,,,,,,,,,,,,,50.0,50.0,50.0*05
$GPRMC,184029.468,V,36000.0000,N,72000.0000,E,0.000000,,291004,,*38
$GPGGA,184030.468,0000.0000,N,00000.0000,E,0,00,50.0,0.0,M,0.0,M,0.0,0000*72
$GPGLL,36000.0000,N,72000.0000,E,184030.468,V*17
$GPGSA,A,1,,,,,,,,,,,,,50.0,50.0,50.0*05
$GPRMC,184030.468,V,36000.0000,N,72000.0000,E,0.000000,,291004,,*30
$GPGGA,184031.468,0000.0000,N,00000.0000,E,0,00,50.0,0.0,M,0.0,M,0.0,0000*73
$GPGLL,36000.0000,N,72000.0000,E,184031.468,V*16
$GPGSA,A,1,,,,,,,,,,,,,50.0,50.0,50.0*05
$GPRMC,184031.468,V,36000.0000,N,72000.0000,E,0.000000,,291004,,*31
$GPGGA,184032.468,0000.0000,N,00000.0000,E,0,00,50.0,0.0,M,0.0,M,0.0,0000*70
$GPGLL,36000.0000,N,72000.0000,E,184032.468,V*15
$GPGSA,A,1,,,,,,,,,,,,,50.0,50.0,50.0*05
$GPGSV,3,1,12,3,0,0,44,22,0,0,0,18,0,0,0,11,0,0,0*72
$GPGSV,3,2,12,16,0,0,0,10,0,0,0,1,0,0,0,6,0,0,0*7A
$GPGSV,3,3,12,15,0,0,0,13,0,0,0,23,0,0,0,122,0,0,0*4C
$GPRMC,184032.468,V,36000.0000,N,72000.0000,E,0.000000,,291004,,*32
$GPGGA,184033.468,0000.0000,N,00000.0000,E,0,00,50.0,0.0,M,0.0,M,0.0,0000*71
$GPGLL,36000.0000,N,72000.0000,E,184033.468,V*14
$GPGSA,A,1,,,,,,,,,,,,,50.0,50.0,50.0*05
$GPRMC,184033.468,V,36000.0000,N,72000.0000,E,0.000000,,291004,,*33
$GPGGA,184034.468,0000.0000,N,00000.0000,E,0,00,50.0,0.0,M,0.0,M,0.0,0000*76
$GPGLL,36000.0000,N,72000.0000,E,184034.468,V*13
$GPGSA,A,1,,,,,,,,,,,,,50.0,50.0,50.0*05
$GPRMC,184034.468,V,36000.0000,N,72000.0000,E,0.000000,,291004,,*34
$GPGGA,184035.468,0000.0000,N,00000.0000,E,0,00,50.0,0.0,M,0.0,M,0.0,0000*77
$GPGLL,36000.0000,N,72000.0000,E,184035.468,V*12
$GPGSA,A,1,,,,,,,,,,,,,50.0,50.0,50.0*05
$GPRMC,184035.468,V,36000.0000,N,72000.0000,E,0.000000,,291004,,*35
$GPGGA,184036.468,0000.0000,N,00000.0000,E,0,00,50.0,0.0,M,0.0,M,0.0,0000*74
$GPGLL,36000.0000,N,72000.0000,E,184036.468,V*11
$GPGSA,A,1,,,,,,,,,,,,,50.0,50.0,50.0*05
$GPRMC,184036.468,V,36000.0000,N,72000.0000,E,0.000000,,291004,,*36
$GPGGA,184037.468,0000.0000,N,00000.0000,E,0,00,50.0,0.0,M,0.0,M,0.0,0000*75
$GPGLL,36000.0000,N,72000.0000,E,184037.468,V*10
$GPGSA,A,1,,,,,,,,,,,,,50.0,50.0,50.0*05
$GPGSV,3,1,12,3,0,0,39,22,0,0,0,18,0,0,0,11,0,0,0*78
$GPGSV,3,2,12,16,0,0,0,10,0,0,0,1,0,0,0,6,0,0,0*7A
$GPGSV,3,3,12,15,0,0,0,13,0,0,0,23,0,0,0,122,0,0,0*4C
$GPRMC,184037.468,V,36000.0000,N,72000.0000,E,0.000000,,291004,,*37
$GPGGA,184038.468,0000.0000,N,00000.0000,E,0,00,50.0,0.0,M,0.0,M,0.0,0000*7A
$GPGLL,36000.0000,N,72000.0000,E,184038.468,V*1F
$GPGSA,A,1,,,,,,,,,,,,,50.0,50.0,50.0*05
$GPRMC,184038.468,V,36000.0000,N,72000.0000,E,0.000000,,291004,,*38
$GPGGA,184039.468,0000.0000,N,00000.0000,E,0,00,50.0,0.0,M,0.0,M,0.0,0000*7B
$GPGLL,36000.0000,N,72000.0000,E,184039.468,V*1E
$GPGSA,A,1,,,,,,,,,,,,,50.0,50.0,50.0*05
$GPRMC,184039.468,V,36000.0000,N,72000.0000,E,0.000000,,291004,,*39
$GPGGA,184040.468,0000.0000,N,00000.0000,E,0,00,50.0,0.0,M,0.0,M,0.0,0000*75
$GPGLL,36000.0000,N,72000.0000,E,184040.468,V*10
$GPGSA,A,1,,,,,,,,,,,,,50.0,50.0,50.0*05
$GPRMC,184040.468,V,36000.0000,N,72000.0000,E,0.000000,,291004,,*37
$GPGGA,184041.468,0000.0000,N,00000.0000,E,0,00,50.0,0.0,M,0.0,M,0.0,0000*74
$GPGLL,36000.0000,N,72000.0000,E,184041.468,V*11
$GPGSA,A,1,,,,,,,,,,,,,50.0,50.0,50.0*05
$GPRMC,184041.468,V,36000.0000,N,72000.0000,E,0.000000,,291004,,*36
$GPGGA,184042.468,0000.0000,N,00000.0000,E,0,00,50.0,0.0,M,0.0,M,0.0,0000*77
$GPGLL,36000.0000,N,72000.0000,E,184042.468,V*12
$GPGSA,A,1,,,,,,,,,,,,,50.0,50.0,50.0*05
$GPGSV,3,1,12,3,0,0,40,22,0,0,0,29,0,0,0,11,0,0,0*74
$GPGSV,3,2,12,16,0,0,0,27,0,0,0,21,0,0,0,8,0,0,0*42
$GPGSV,3,3,12,25,0,0,0,13,0,0,0,23,0,0,0,122,0,0,0*4F
$GPRMC,184042.468,V,36000.0000,N,72000.0000,E,0.000000,,291004,,*35
$GPGGA,184043.467,0000.0000,N,00000.0000,E,0,00,50.0,0.0,M,0.0,M,0.0,0000*79
$GPGLL,36000.0000,N,72000.0000,E,184043.467,V*1C
$GPGSA,A,1,,,,,,,,,,,,,50.0,50.0,50.0*05
$GPRMC,184043.467,V,36000.0000,N,72000.0000,E,0.000000,,291004,,*3B
$GPGGA,184044.467,0000.0000,N,00000.0000,E,0,00,50.0,0.0,M,0.0,M,0.0,0000*7E
$GPGLL,36000.0000,N,72000.0000,E,184044.467,V*1B
$GPGSA,A,1,,,,,,,,,,,,,50.0,50.0,50.0*05
$GPRMC,184044.467,V,36000.0000,N,72000.0000,E,0.000000,,291004,,*3C
$GPGGA,184045.467,0000.0000,N,00000.0000,E,0,00,50.0,0.0,M,0.0,M,0.0,0000*7F
$GPGLL,36000.0000,N,72000.0000,E,184045.467,V*1A
$GPGSA,A,1,,,,,,,,,,,,,50.0,50.0,50.0*05
$GPRMC,184045.467,V,36000.0000,N,72000.0000,E,0.000000,,291004,,*3D
$GPGGA,184046.467,0000.0000,N,00000.0000,E,0,00,50.0,0.0,M,0.0,M,0.0,0000*7C
$GPGLL,36000.0000,N,72000.0000,E,184046.467,V*19
$GPGSA,A,1,,,,,,,,,,,,,50.0,50.0,50.0*05
$GPRMC,184046.467,V,36000.0000,N,72000.0000,E,0.000000,,291004,,*3E
$GPGGA,184047.467,0000.0000,N,00000.0000,E,0,00,50.0,0.0,M,0.0,M,0.0,0000*7D
$GPGLL,36000.0000,N,72000.0000,E,184047.467,V*18
$GPGSA,A,1,,,,,,,,,,,,,50.0,50.0,50.0*05
$GPGSV,3,1,12,3,0,0,40,22,0,0,0,29,0,0,0,11,0,0,0*74
$GPGSV,3,2,12,16,0,0,0,27,0,0,37,21,0,0,0,8,0,0,0*76
$GPGSV,3,3,12,25,0,0,0,13,0,0,0,23,0,0,0,122,0,0,0*4F
$GPRMC,184047.467,V,36000.0000,N,72000.0000,E,0.000000,,291004,,*3F
$GPGGA,184048.467,0000.0000,N,00000.0000,E,0,00,50.0,0.0,M,0.0,M,0.0,0000*72
$GPGLL,36000.0000,N,72000.0000,E,184048.467,V*17
$GPGSA,A,1,,,,,,,,,,,,,50.0,50.0,50.0*05
$GPRMC,184048.467,V,36000.0000,N,72000.0000,E,0.000000,,291004,,*30
$GPGGA,184049.467,0000.0000,N,00000.0000,E,0,00,50.0,0.0,M,0.0,M,0.0,0000*73
$GPGLL,36000.0000,N,72000.0000,E,184049.467,V*16
$GPGSA,A,1,,,,,,,,,,,,,50.0,50.0,50.0*05
$GPRMC,184049.467,V,36000.0000,N,72000.0000,E,0.000000,,291004,,*31
$GPGGA,184050.467,0000.0000,N,00000.0000,E,0,00,50.0,0.0,M,0.0,M,0.0,0000*7B
$GPGLL,36000.0000,N,72000.0000,E,184050.467,V*1E
$GPGSA,A,1,,,,,,,,,,,,,50.0,50.0,50.0*05
$GPRMC,184050.467,V,36000.0000,N,72000.0000,E,0.000000,,291004,,*39
$GPGGA,184051.467,0000.0000,N,00000.0000,E,0,00,50.0,0.0,M,0.0,M,0.0,0000*7A
$GPGLL,36000.0000,N,72000.0000,E,184051.467,V*1F
$GPGSA,A,1,,,,,,,,,,,,,50.0,50.0,50.0*05
$GPRMC,184051.467,V,36000.0000,N,72000.0000,E,0.000000,,291004,,*38
$GPGGA,184052.467,0000.0000,N,00000.0000,E,0,00,50.0,0.0,M,0.0,M,0.0,0000*79
$GPGLL,36000.0000,N,72000.0000,E,184052.467,V*1C
$GPGSA,A,1,,,,,,,,,,,,,50.0,50.0,50.0*05
$GPGSV,3,1,12,3,0,0,40,22,0,0,0,29,0,0,0,11,0,0,0*74
$GPGSV,3,2,12,16,0,0,0,27,0,0,32,21,0,0,0,8,0,0,0*73
$GPGSV,3,3,12,25,0,0,0,13,0,0,0,23,0,0,0,122,0,0,0*4F
$GPRMC,184052.467,V,36000.0000,N,72000.0000,E,0.000000,,291004,,*3B
$GPGGA,184053.467,0000.0000,N,00000.0000,E,0,00,50.0,0.0,M,0.0,M,0.0,0000*78
$GPGLL,36000.0000,N,72000.0000,E,184053.467,V*1D
$GPGSA,A,1,,,,,,,,,,,,,50.0,50.0,50.0*05
$GPRMC,184053.467,V,36000.0000,N,72000.0000,E,0.000000,,291004,,*3A
$GPGGA,184054.467,0000.0000,N,00000.0000,E,0,00,50.0,0.0,M,0.0,M,0.0,0000*7F
$GPGLL,36000.0000,N,72000.0000,E,184054.467,V*1A
$GPGSA,A,1,,,,,,,,,,,,,50.0,50.0,50.0*05
$GPRMC,184054.467,V,36000.0000,N,72000.0000,E,0.000000,,291004,,*3D
$GPGGA,184055.467,0000.0000,N,00000.0000,E,0,00,50.0,0.0,M,0.0,M,0.0,0000*7E
$GPGLL,36000.0000,N,72000.0000,E,184055.467,V*1B
$GPGSA,A,1,,,,,,,,,,,,,50.0,50.0,50.0*05
$GPRMC,184055.467,V,36000.0000,N,72000.0000,E,0.000000,,291004,,*3C
$GPGGA,184056.467,0000.0000,N,00000.0000,E,0,00,50.0,0.0,M,0.0,M,0.0,0000*7D
$GPGLL,36000.0000,N,72000.0000,E,184056.467,V*18
$GPGSA,A,1,,,,,,,,,,,,,50.0,50.0,50.0*05
$GPRMC,184056.467,V,36000.0000,N,72000.0000,E,0.000000,,291004,,*3F
$GPGGA,184057.467,0000.0000,N,00000.0000,E,0,00,50.0,0.0,M,0.0,M,0.0,0000*7C
$GPGLL,36000.0000,N,72000.0000,E,184057.467,V*19
$GPGSA,A,1,,,,,,,,,,,,,50.0,50.0,50.0*05
$GPGSV,3,1,12,3,0,0,40,22,0,0,0,29,0,0,0,11,0,0,0*74
$GPGSV,3,2,12,16,0,0,0,27,0,0,23,21,0,0,0,8,0,0,40*47
$GPGSV,3,3,12,25,0,0,0,13,0,0,0,23,0,0,0,122,0,0,0*4F
$GPRMC,184057.467,V,36000.0000,N,72000.0000,E,0.000000,,291004,,*3E
$GPGGA,184058.467,0000.0000,N,00000.0000,E,0,00,50.0,0.0,M,0.0,M,0.0,0000*73
$GPGLL,36000.0000,N,72000.0000,E,184058.467,V*16
$GPGSA,A,1,,,,,,,,,,,,,50.0,50.0,50.0*05
$GPRMC,184058.467,V,36000.0000,N,72000.0000,E,0.000000,,291004,,*31
$GPGGA,184059.466,0000.0000,N,00000.0000,E,0,00,50.0,0.0,M,0.0,M,0.0,0000*73
$GPGLL,36000.0000,N,72000.0000,E,184059.466,V*16
$GPGSA,A,1,,,,,,,,,,,,,50.0,50.0,50.0*05
$GPRMC,184059.466,V,36000.0000,N,72000.0000,E,0.000000,,291004,,*31
$GPGGA,184100.466,0000.0000,N,00000.0000,E,0,00,50.0,0.0,M,0.0,M,0.0,0000*7E
$GPGLL,36000.0000,N,72000.0000,E,184100.466,V*1B
$GPGSA,A,1,,,,,,,,,,,,,50.0,50.0,50.0*05
$GPRMC,184100.466,V,36000.0000,N,72000.0000,E,0.000000,,291004,,*3C
$GPGGA,184101.466,0000.0000,N,00000.0000,E,0,00,50.0,0.0,M,0.0,M,0.0,0000*7F
$GPGLL,36000.0000,N,72000.0000,E,184101.466,V*1A
$GPGSA,A,1,,,,,,,,,,,,,50.0,50.0,50.0*05
$GPRMC,184101.466,V,36000.0000,N,72000.0000,E,0.000000,,291004,,*3D
$GPGGA,184102.466,0000.0000,N,00000.0000,E,0,00,50.0,0.0,M,0.0,M,0.0,0000*7C
$GPGLL,36000.0000,N,72000.0000,E,184102.466,V*19
$GPGSA,A,1,,,,,,,,,,,,,50.0,50.0,50.0*05
$GPGSV,3,1,12,3,0,0,27,22,0,0,0,29,0,0,0,11,0,0,0*75
$GPGSV,3,2,12,16,0,0,0,27,0,0,21,21,0,0,0,8,0,0,42*47
$GPGSV,3,3,12,25,0,0,0,13,0,0,0,23,0,0,0,122,0,0,0*4F
$GPRMC,184102.466,V,36000.0000,N,72000.0000,E,0.000000,,291004,,*3E
$GPGGA,184103.466,0000.0000,N,00000.0000,E,0,00,50.0,0.0,M,0.0,M,0.0,0000*7D
$GPGLL,36000.0000,N,72000.0000,E,184103.466,V*18
$GPGSA,A,1,,,,,,,,,,,,,50.0,50.0,50.0*05
$GPRMC,184103.466,V,36000.0000,N,72000.0000,E,0.000000,,291004,,*3F
$GPGGA,184104.466,0000.0000,N,00000.0000,E,0,00,50.0,0.0,M,0.0,M,0.0,0000*7A
$GPGLL,36000.0000,N,72000.0000,E,184104.466,V*1F
$GPGSA,A,1,,,,,,,,,,,,,50.0,50.0,50.0*05
$GPRMC,184104.466,V,36000.0000,N,72000.0000,E,0.000000,,291004,,*38
$GPGGA,184105.466,0000.0000,N,00000.0000,E,0,00,50.0,0.0,M,0.0,M,0.0,0000*7B
$GPGLL,36000.0000,N,72000.0000,E,184105.466,V*1E
$GPGSA,A,1,,,,,,,,,,,,,50.0,50.0,50.0*05
$GPRMC,184105.466,V,36000.0000,N,72000.0000,E,0.000000,,291004,,*39
$GPGGA,184106.466,0000.0000,N,00000.0000,E,0,00,50.0,0.0,M,0.0,M,0.0,0000*78
$GPGLL,36000.0000,N,72000.0000,E,184106.466,V*1D
$GPGSA,A,1,,,,,,,,,,,,,50.0,50.0,50.0*05
$GPRMC,184106.466,V,36000.0000,N,72000.0000,E,0.000000,,291004,,*3A
$GPGGA,184107.466,0000.0000,N,00000.0000,E,0,00,50.0,0.0,M,0.0,M,0.0,0000*79
$GPGLL,36000.0000,N,72000.0000,E,184107.466,V*1C
$GPGSA,A,1,,,,,,,,,,,,,50.0,50.0,50.0*05
$GPGSV,3,1,12,18,0,0,0,22,0,0,0,29,0,0,0,11,0,0,0*7A
$GPGSV,3,2,12,16,0,0,0,3,0,0,0,21,0,0,0,8,0,0,24*42
$GPGSV,3,3,12,25,0,0,0,15,0,0,0,10,0,0,0,122,0,0,0*49
$GPRMC,184107.466,V,36000.0000,N,72000.0000,E,0.000000,,291004,,*3B
$GPGGA,184108.466,0000.0000,N,00000.0000,E,0,00,50.0,0.0,M,0.0,M,0.0,0000*76
$GPGLL,36000.0000,N,72000.0000,E,184108.466,V*13
$GPGSA,A,1,,,,,,,,,,,,,50.0,50.0,50.0*05
$GPRMC,184108.466,V,36000.0000,N,72000.0000,E,0.000000,,291004,,*34
$GPGGA,184109.466,0000.0000,N,00000.0000,E,0,00,50.0,0.0,M,0.0,M,0.0,0000*77
$GPGLL,36000.0000,N,72000.0000,E,184109.466,V*12
$GPGSA,A,1,,,,,,,,,,,,,50.0,50.0,50.0*05
$GPRMC,184109.466,V,36000.0000,N,72000.0000,E,0.000000,,291004,,*35
$GPGGA,184110.466,0000.0000,N,00000.0000,E,0,00,50.0,0.0,M,0.0,M,0.0,0000*7F
$GPGLL,36000.0000,N,72000.0000,E,184110.466,V*1A
$GPGSA,A,1,,,,,,,,,,,,,50.0,50.0,50.0*05
$GPRMC,184110.466,V,36000.0000,N,72000.0000,E,0.000000,,291004,,*3D
$GPGGA,184111.466,0000.0000,N,00000.0000,E,0,00,50.0,0.0,M,0.0,M,0.0,0000*7E
$GPGLL,36000.0000,N,72000.0000,E,184111.466,V*1B
$GPGSA,A,1,,,,,,,,,,,,,50.0,50.0,50.0*05
$GPRMC,184111.466,V,36000.0000,N,72000.0000,E,0.000000,,291004,,*3C
$GPGGA,184112.466,0000.0000,N,00000.0000,E,0,00,50.0,0.0,M,0.0,M,0.0,0000*7D
$GPGLL,36000.0000,N,72000.0000,E,184112.466,V*18
$GPGSA,A,1,,,,,,,,,,,,,50.0,50.0,50.0*05
$GPGSV,3,1,12,18,0,0,0,1,0,0,0,29,0,0,0,11,0,0,0*4B
$GPGSV,3,2,12,16,0,0,0,3,0,0,39,21,0,0,0,8,0,0,43*79
$GPGSV,3,3,12,25,0,0,0,15,0,0,0,10,0,0,0,122,0,0,0*49
$GPRMC,184112.466,V,36000.0000,N,72000.0000,E,0.000000,,291004,,*3F
$GPGGA,184113.466,0000.0000,N,00000.0000,E,0,00,50.0,0.0,M,0.0,M,0.0,0000*7C
$GPGLL,36000.0000,N,72000.0000,E,184113.466,V*19
$GPGSA,A,1,,,,,,,,,,,,,50.0,50.0,50.0*05
$GPRMC,184113.466,V,36000.0000,N,72000.0000,E,0.000000,,291004,,*3E
$GPGGA,184114.466,0000.0000,N,00000.0000,E,0,00,50.0,0.0,M,0.0,M,0.0,0000*7B
$GPGLL,36000.0000,N,72000.0000,E,184114.466,V*1E
$GPGSA,A,1,,,,,,,,,,,,,50.0,50.0,50.0*05
$GPRMC,184114.466,V,36000.0000,N,72000.0000,E,0.000000,,291004,,*39
$GPGGA,184115.466,0000.0000,N,00000.0000,E,0,00,50.0,0.0,M,0.0,M,0.0,0000*7A
$GPGLL,36000.0000,N,72000.0000,E,184115.466,V*1F
$GPGSA,A,1,,,,,,,,,,,,,50.0,50.0,50.0*05
$GPRMC,184115.466,V,36000.0000,N,72000.0000,E,0.000000,,291004,,*38
$GPGGA,184116.465,0000.0000,N,00000.0000,E,0,00,50.0,0.0,M,0.0,M,0.0,0000*7A
$GPGLL,36000.0000,N,72000.0000,E,184116.465,V*1F
$GPGSA,A,1,,,,,,,,,,,,,50.0,50.0,50.0*05
$GPRMC,184116.465,V,36000.0000,N,72000.0000,E,0.000000,,291004,,*38
$GPGGA,184117.465,0000.0000,N,00000.0000,E,0,00,50.0,0.0,M,0.0,M,0.0,0000*7B
$GPGLL,36000.0000,N,72000.0000,E,184117.465,V*1E
$GPGSA,A,1,,,,,,,,,,,,,50.0,50.0,50.0*05
$GPGSV,3,1,12,18,0,0,0,1,0,0,0,29,0,0,0,11,0,0,0*4B
$GPGSV,3,2,12,16,0,0,0,3,0,0,39,21,0,0,0,8,0,0,39*74
$GPGSV,3,3,12,25,0,0,0,15,0,0,0,10,0,0,0,122,0,0,0*49
$GPRMC,184117.465,V,36000.0000,N,72000.0000,E,0.000000,,291004,,*39
$GPGGA,184118.465,0000.0000,N,00000.0000,E,0,00,50.0,0.0,M,0.0,M,0.0,0000*74
$GPGLL,36000.0000,N,72000.0000,E,184118.465,V*11
$GPGSA,A,1,,,,,,,,,,,,,50.0,50.0,50.0*05
$GPRMC,184118.465,V,36000.0000,N,72000.0000,E,0.000000,,291004,,*36
$GPGGA,184119.465,0000.0000,N,00000.0000,E,0,00,50.0,0.0,M,0.0,M,0.0,0000*75
$GPGLL,36000.0000,N,72000.0000,E,184119.465,V*10
$GPGSA,A,1,,,,,,,,,,,,,50.0,50.0,50.0*05
$GPRMC,184119.465,V,36000.0000,N,72000.0000,E,0.000000,,291004,,*37
$GPGGA,184120.465,0000.0000,N,00000.0000,E,0,00,50.0,0.0,M,0.0,M,0.0,0000*7F
$GPGLL,36000.0000,N,72000.0000,E,184120.465,V*1A
$GPGSA,A,1,,,,,,,,,,,,,50.0,50.0,50.0*05
$GPRMC,184120.465,V,36000.0000,N,72000.0000,E,0.000000,,291004,,*3D
$GPGGA,184121.465,0000.0000,N,00000.0000,E,0,00,50.0,0.0,M,0.0,M,0.0,0000*7E
$GPGLL,36000.0000,N,72000.0000,E,184121.465,V*1B
$GPGSA,A,1,,,,,,,,,,,,,50.0,50.0,50.0*05
$GPRMC,184121.465,V,36000.0000,N,72000.0000,E,0.000000,,291004,,*3C
$GPGGA,184122.465,0000.0000,N,00000.0000,E,0,00,50.0,0.0,M,0.0,M,0.0,0000*7D
$GPGLL,36000.0000,N,72000.0000,E,184122.465,V*18
$GPGSA,A,1,,,,,,,,,,,,,50.0,50.0,50.0*05
$GPGSV,3,1,12,18,0,0,0,1,0,0,0,29,0,0,0,11,0,0,0*4B
$GPGSV,3,2,12,16,0,0,0,3,0,0,38,21,0,0,0,8,0,0,37*7B
$GPGSV,3,3,12,25,0,0,0,15,0,0,0,10,0,0,0,122,0,0,0*49
$GPRMC,184122.465,V,36000.0000,N,72000.0000,E,0.000000,,291004,,*3F
$GPGGA,184123.465,0000.0000,N,00000.0000,E,0,00,50.0,0.0,M,0.0,M,0.0,0000*7C
$GPGLL,36000.0000,N,72000.0000,E,184123.465,V*19
$GPGSA,A,1,,,,,,,,,,,,,50.0,50.0,50.0*05
$GPRMC,184123.465,V,36000.0000,N,72000.0000,E,0.000000,,291004,,*3E
$GPGGA,184124.465,0000.0000,N,00000.0000,E,0,00,50.0,0.0,M,0.0,M,0.0,0000*7B
$GPGLL,36000.0000,N,72000.0000,E,184124.465,V*1E
$GPGSA,A,1,,,,,,,,,,,,,50.0,50.0,50.0*05
$GPRMC,184124.465,V,36000.0000,N,72000.0000,E,0.000000,,291004,,*39
$GPGGA,184125.465,0000.0000,N,00000.0000,E,0,00,50.0,0.0,M,0.0,M,0.0,0000*7A
$GPGLL,36000.0000,N,72000.0000,E,184125.465,V*1F
$GPGSA,A,1,,,,,,,,,,,,,50.0,50.0,50.0*05
$GPRMC,184125.465,V,36000.0000,N,72000.0000,E,0.000000,,291004,,*38
$GPGGA,184126.465,0000.0000,N,00000.0000,E,0,00,50.0,0.0,M,0.0,M,0.0,0000*79
$GPGLL,36000.0000,N,72000.0000,E,184126.465,V*1C
$GPGSA,A,1,,,,,,,,,,,,,50.0,50.0,50.0*05
$GPRMC,184126.465,V,36000.0000,N,72000.0000,E,0.000000,,291004,,*3B
$GPGGA,184127.465,0000.0000,N,00000.0000,E,0,00,50.0,0.0,M,0.0,M,0.0,0000*78
$GPGLL,36000.0000,N,72000.0000,E,184127.465,V*1D
$GPGSA,A,1,,,,,,,,,,,,,50.0,50.0,50.0*05
$GPGSV,3,1,12,18,0,0,0,1,0,0,0,29,0,0,0,11,0,0,0*4B
$GPGSV,3,2,12,16,0,0,0,3,0,0,40,21,0,0,0,8,0,0,34*77
$GPGSV,3,3,12,25,0,0,0,15,0,0,0,10,0,0,0,122,0,0,0*49
$GPRMC,184127.465,V,36000.0000,N,72000.0000,E,0.000000,,291004,,*3A
$GPGGA,184128.465,0000.0000,N,00000.0000,E,0,00,50.0,0.0,M,0.0,M,0.0,0000*77
$GPGLL,36000.0000,N,72000.0000,E,184128.465,V*12
$GPGSA,A,1,,,,,,,,,,,,,50.0,50.0,50.0*05
$GPRMC,184128.465,V,36000.0000,N,72000.0000,E,0.000000,,291004,,*35
$GPGGA,184129.465,0000.0000,N,00000.0000,E,0,00,50.0,0.0,M,0.0,M,0.0,0000*76
$GPGLL,36000.0000,N,72000.0000,E,184129.465,V*13
$GPGSA,A,1,,,,,,,,,,,,,50.0,50.0,50.0*05
$GPRMC,184129.465,V,36000.0000,N,72000.0000,E,0.000000,,291004,,*34
$GPGGA,184130.465,0000.0000,N,00000.0000,E,0,00,50.0,0.0,M,0.0,M,0.0,0000*7E
$GPGLL,36000.0000,N,72000.0000,E,184130.465,V*1B
$GPGSA,A,1,,,,,,,,,,,,,50.0,50.0,50.0*05
$GPRMC,184130.465,V,36000.0000,N,72000.0000,E,0.000000,,291004,,*3C
$GPGGA,184131.465,0000.0000,N,00000.0000,E,0,00,50.0,0.0,M,0.0,M,0.0,0000*7F
$GPGLL,36000.0000,N,72000.0000,E,184131.465,V*1A
$GPGSA,A,1,,,,,,,,,,,,,50.0,50.0,50.0*05
$GPRMC,184131.465,V,36000.0000,N,72000.0000,E,0.000000,,291004,,*3D
$GPGGA,184132.464,0000.0000,N,00000.0000,E,0,00,50.0,0.0,M,0.0,M,0.0,0000*7D
$GPGLL,36000.0000,N,72000.0000,E,184132.464,V*18
$GPGSA,A,1,,,,,,,,,,,,,50.0,50.0,50.0*05
$GPGSV,3,1,12,18,0,0,0,1,0,0,0,29,0,0,0,11,0,0,0*4B
$GPGSV,3,2,12,16,0,0,0,3,0,0,40,21,0,0,0,8,0,0,37*74
$GPGSV,3,3,12,25,0,0,0,15,0,0,0,10,0,0,0,122,0,0,0*49
$GPRMC,184132.464,V,36000.0000,N,72000.0000,E,0.000000,,291004,,*3F
$GPGGA,184133.464,0000.0000,N,00000.0000,E,0,00,50.0,0.0,M,0.0,M,0.0,0000*7C
$GPGLL,36000.0000,N,72000.0000,E,184133.464,V*19
$GPGSA,A,1,,,,,,,,,,,,,50.0,50.0,50.0*05
$GPRMC,184133.464,V,36000.0000,N,72000.0000,E,0.000000,,291004,,*3E
$GPGGA,184134.464,0000.0000,N,00000.0000,E,0,00,50.0,0.0,M,0.0,M,0.0,0000*7B
$GPGLL,36000.0000,N,72000.0000,E,184134.464,V*1E
$GPGSA,A,1,,,,,,,,,,,,,50.0,50.0,50.0*05
$GPRMC,184134.464,V,36000.0000,N,72000.0000,E,0.000000,,291004,,*39
$GPGGA,184135.464,0000.0000,N,00000.0000,E,0,00,50.0,0.0,M,0.0,M,0.0,0000*7A
$GPGLL,36000.0000,N,72000.0000,E,184135.464,V*1F
$GPGSA,A,1,,,,,,,,,,,,,50.0,50.0,50.0*05
$GPRMC,184135.464,V,36000.0000,N,72000.0000,E,0.000000,,291004,,*38
$GPGGA,184136.464,0000.0000,N,00000.0000,E,0,00,50.0,0.0,M,0.0,M,0.0,0000*79
$GPGLL,36000.0000,N,72000.0000,E,184136.464,V*1C
$GPGSA,A,1,,,,,,,,,,,,,50.0,50.0,50.0*05
$GPRMC,184136.464,V,36000.0000,N,72000.0000,E,0.000000,,291004,,*3B
$GPGGA,184137.464,0000.0000,N,00000.0000,E,0,00,50.0,0.0,M,0.0,M,0.0,0000*78
$GPGLL,36000.0000,N,72000.0000,E,184137.464,V*1D
$GPGSA,A,1,,,,,,,,,,,,,50.0,50.0,50.0*05
$GPGSV,3,1,12,18,0,0,0,1,0,0,0,29,0,0,0,11,0,0,0*4B
$GPGSV,3,2,12,16,0,0,0,3,0,0,40,21,0,0,0,8,0,0,33*70
$GPGSV,3,3,12,25,0,0,0,15,0,0,0,10,0,0,0,122,0,0,0*49
$GPRMC,184137.464,V,36000.0000,N,72000.0000,E,0.000000,,291004,,*3A
$GPGGA,184138.464,0000.0000,N,00000.0000,E,0,00,50.0,0.0,M,0.0,M,0.0,0000*77
$GPGLL,36000.0000,N,72000.0000,E,184138.464,V*12
$GPGSA,A,1,,,,,,,,,,,,,50.0,50.0,50.0*05
$GPRMC,184138.464,V,36000.0000,N,72000.0000,E,0.000000,,291004,,*35
$GPGGA,184139.464,0000.0000,N,00000.0000,E,0,00,50.0,0.0,M,0.0,M,0.0,0000*76
$GPGLL,36000.0000,N,72000.0000,E,184139.464,V*13
$GPGSA,A,1,,,,,,,,,,,,,50.0,50.0,50.0*05
$GPRMC,184139.464,V,36000.0000,N,72000.0000,E,0.000000,,291004,,*34
$GPGGA,184140.464,0000.0000,N,00000.0000,E,0,00,50.0,0.0,M,0.0,M,0.0,0000*78
$GPGLL,36000.0000,N,72000.0000,E,184140.464,V*1D
$GPGSA,A,1,,,,,,,,,,,,,50.0,50.0,50.0*05
$GPRMC,184140.464,V,36000.0000,N,72000.0000,E,0.000000,,291004,,*3A
